[{"name":"Abanillas","lat":43.346131,"lng":-4.461182,"mun":"VAL DE SAN VICENTE","src":"NGBE","code":"2.1.4","id":13303},{"name":"Abaño","lat":43.361878,"lng":-4.390808,"mun":"SAN VICENTE DE LA BARQUERA","src":"NGBE","code":"2.1.4","id":13304},{"name":"Abiada","lat":43.01831,"lng":-4.290526,"mun":"HERMANDAD DE CAMPOO DE SUSO","src":"NGBE","code":"2.1.4","id":13305},{"name":"Abionzo","lat":43.2453,"lng":-3.813598,"mun":"VILLACARRIEDO","src":"NGBE","code":"2.1.4","id":13306},{"name":"Acereda","lat":43.231872,"lng":-3.933777,"mun":"SANTIURDE DE TORANZO","src":"NGBE","code":"2.1.4","id":13307},{"name":"Adal-Treto","lat":43.396117,"lng":-3.475094,"mun":"BÁRCENA DE CICERO","src":"NGBE","code":"2.1.4","id":13308},{"name":"Adino","lat":43.343612,"lng":-3.336212,"mun":"GURIEZO","src":"NGBE","code":"2.1.9","id":4586},{"name":"Aés","lat":43.283874,"lng":-3.956421,"mun":"PUENTE VIESGO","src":"NGBE","code":"2.1.4","id":13310},{"name":"Agüera","lat":43.296325,"lng":-3.25641,"mun":"GURIEZO","src":"NGBE","code":"2.1.4","id":13311},{"name":"Agüero","lat":43.414304,"lng":-3.723995,"mun":"MARINA DE CUDEYO","src":"NGBE","code":"2.1.4","id":13312},{"name":"Ahedo","lat":43.33673,"lng":-3.390807,"mun":"AMPUERO","src":"NGBE","code":"2.1.9","id":4606},{"name":"Aja","lat":43.200073,"lng":-3.522581,"mun":"SOBA","src":"NGBE","code":"2.1.4","id":13313},{"name":"Ajanedo","lat":43.261291,"lng":-3.711791,"mun":"MIERA","src":"NGBE","code":"2.1.9","id":4607},{"name":"Ajo","lat":43.479203,"lng":-3.612867,"mun":"BAREYO","src":"NGBE","code":"2.1.4","id":13315},{"name":"Ajo","lat":43.479203,"lng":-3.612867,"mun":"BAREYO","src":"NGBE","code":"2.1.3","id":13929},{"name":"Alar","lat":43.110901,"lng":-3.80481,"mun":"SAN PEDRO DEL ROMERAL","src":"NGBE","code":"2.1.9","id":588},{"name":"Alceda","lat":43.193909,"lng":-3.917786,"mun":"CORVERA DE TORANZO","src":"NGBE","code":"2.1.4","id":13317},{"name":"Aldano","lat":43.131982,"lng":-3.870868,"mun":"SAN PEDRO DEL ROMERAL","src":"NGBE","code":"2.1.9","id":4621},{"name":"Aldea de Ebro","lat":42.905884,"lng":-4.030213,"mun":"VALDEPRADO DEL RÍO","src":"NGBE","code":"2.1.4","id":13318},{"name":"Aldueso","lat":43.017883,"lng":-4.088012,"mun":"CAMPOO DE ENMEDIO","src":"NGBE","code":"2.1.4","id":13319},{"name":"Aliezo","lat":43.172123,"lng":-4.600742,"mun":"CILLORIGO DE LIÉBANA","src":"NGBE","code":"2.1.9","id":4624},{"name":"Alisas","lat":43.297895,"lng":-3.657833,"mun":"Varios o fuera de Cantabria","src":"NGBE","code":"2.1.9","id":591},{"name":"Alisas","lat":43.354492,"lng":-3.410399,"mun":"AMPUERO","src":"NGBE","code":"2.1.9","id":592},{"name":"Allén del Hoyo","lat":42.929688,"lng":-3.882814,"mun":"VALDERREDIBLE","src":"NGBE","code":"2.1.4","id":13320},{"name":"Allende","lat":43.215122,"lng":-4.596977,"mun":"CILLORIGO DE LIÉBANA","src":"NGBE","code":"2.1.6","id":4625},{"name":"Allendelagua","lat":43.395874,"lng":-3.247007,"mun":"CASTRO-URDIALES","src":"NGBE","code":"2.1.9","id":4626},{"name":"Aloños","lat":43.229309,"lng":-3.874512,"mun":"VILLACARRIEDO","src":"NGBE","code":"2.1.4","id":13321},{"name":"Ambrosero","lat":43.417113,"lng":-3.549678,"mun":"BÁRCENA DE CICERO","src":"NGBE","code":"2.1.4","id":13322},{"name":"Ampuero","lat":43.34243,"lng":-3.41735,"mun":"AMPUERO","src":"NGBE","code":"2.1.9","id":613},{"name":"Ampuero","lat":43.34243,"lng":-3.41735,"mun":"AMPUERO","src":"NGBE","code":"2.1.3","id":13937},{"name":"Anaz","lat":43.362486,"lng":-3.753782,"mun":"MEDIO CUDEYO","src":"NGBE","code":"2.1.4","id":13324},{"name":"Ancillo","lat":43.449889,"lng":-3.491083,"mun":"ARGOÑOS","src":"NGBE","code":"2.1.9","id":614},{"name":"Anero","lat":43.39691,"lng":-3.650814,"mun":"RIBAMONTÁN AL MONTE","src":"NGBE","code":"2.1.4","id":13325},{"name":"Angostina","lat":43.335509,"lng":-3.325684,"mun":"GURIEZO","src":"NGBE","code":"2.1.9","id":4773},{"name":"Angustina","lat":43.318908,"lng":-3.709104,"mun":"RIOTUERTO","src":"NGBE","code":"2.1.9","id":616},{"name":"Aniezo","lat":43.144131,"lng":-4.536823,"mun":"CABEZÓN DE LIÉBANA","src":"NGBE","code":"2.1.4","id":13327},{"name":"Aradillos","lat":43.03009,"lng":-4.133789,"mun":"CAMPOO DE ENMEDIO","src":"NGBE","code":"2.1.4","id":13329},{"name":"Arantiones","lat":42.823304,"lng":-3.970583,"mun":"VALDERREDIBLE","src":"NGBE","code":"2.1.4","id":13330},{"name":"Arca","lat":43.155728,"lng":-4.047438,"mun":"MOLLEDO","src":"Autonómico","code":"2.1.6","id":119445},{"name":"Arce","lat":43.410094,"lng":-3.942384,"mun":"PIÉLAGOS","src":"NGBE","code":"2.1.4","id":13331},{"name":"Arcera","lat":42.875306,"lng":-4.047486,"mun":"VALDEPRADO DEL RÍO","src":"NGBE","code":"2.1.4","id":13333},{"name":"Arenal","lat":43.331114,"lng":-3.816589,"mun":"PENAGOS","src":"NGBE","code":"2.1.4","id":13334},{"name":"Arenas","lat":43.287903,"lng":-4.447083,"mun":"RIONANSA","src":"NGBE","code":"2.1.4","id":13335},{"name":"Arenas de Iguña","lat":43.185507,"lng":-4.048746,"mun":"ARENAS DE IGUÑA","src":"NGBE","code":"2.1.9","id":634},{"name":"Arenas de Iguña","lat":43.185507,"lng":-4.048746,"mun":"ARENAS DE IGUÑA","src":"NGBE","code":"2.1.3","id":13946},{"name":"Arenillas de Ebro","lat":42.818483,"lng":-3.909792,"mun":"VALDERREDIBLE","src":"NGBE","code":"2.1.4","id":13337},{"name":"Areños","lat":43.113761,"lng":-4.728161,"mun":"CAMALEÑO","src":"NGBE","code":"2.1.9","id":4796},{"name":"Argomilla","lat":43.307921,"lng":-3.873779,"mun":"SANTA MARÍA DE CAYÓN","src":"NGBE","code":"2.1.4","id":13338},{"name":"Argoños","lat":43.455652,"lng":-3.493961,"mun":"ARGOÑOS","src":"NGBE","code":"2.1.9","id":637},{"name":"Argoños","lat":43.455652,"lng":-3.493961,"mun":"ARGOÑOS","src":"NGBE","code":"2.1.3","id":13950},{"name":"Argüébanes","lat":43.175476,"lng":-4.66449,"mun":"CAMALEÑO","src":"NGBE","code":"2.1.4","id":13339},{"name":"Argüedes","lat":43.348955,"lng":-4.35565,"mun":"VALDÁLIGA","src":"NGBE","code":"2.1.6","id":4800},{"name":"Argüeso","lat":43.031128,"lng":-4.199889,"mun":"HERMANDAD DE CAMPOO DE SUSO","src":"NGBE","code":"2.1.4","id":13340},{"name":"Armaño","lat":43.176804,"lng":-4.608219,"mun":"CILLORIGO DE LIÉBANA","src":"NGBE","code":"2.1.4","id":13341},{"name":"Arnuero","lat":43.470514,"lng":-3.561625,"mun":"ARNUERO","src":"NGBE","code":"2.1.4","id":13342},{"name":"Arnuero","lat":43.470514,"lng":-3.561625,"mun":"ARNUERO","src":"NGBE","code":"2.1.3","id":13954},{"name":"Arredondo","lat":43.274697,"lng":-3.601484,"mun":"ARREDONDO","src":"NGBE","code":"2.1.9","id":642},{"name":"Arredondo","lat":43.274697,"lng":-3.601484,"mun":"ARREDONDO","src":"NGBE","code":"2.1.3","id":13956},{"name":"Arroyal","lat":42.909611,"lng":-4.077187,"mun":"VALDEPRADO DEL RÍO","src":"NGBE","code":"2.1.4","id":13344},{"name":"Arroyal","lat":42.909611,"lng":-4.077187,"mun":"VALDEPRADO DEL RÍO","src":"NGBE","code":"2.1.3","id":13957},{"name":"Arroyo","lat":42.972473,"lng":-4.054504,"mun":"ROZAS DE VALDEARROYO (LAS)","src":"NGBE","code":"2.1.9","id":4817},{"name":"Arroyo","lat":43.403687,"lng":-4.126404,"mun":"SANTILLANA DEL MAR","src":"NGBE","code":"2.1.4","id":13346},{"name":"Arroyuelos","lat":42.839478,"lng":-3.859499,"mun":"VALDERREDIBLE","src":"NGBE","code":"2.1.4","id":13348},{"name":"Asón","lat":43.240112,"lng":-3.605711,"mun":"SOBA","src":"NGBE","code":"2.1.9","id":672},{"name":"Asón","lat":43.240112,"lng":-3.605711,"mun":"SOBA","src":"NGBE","code":"2.1.4","id":13349},{"name":"Astrana","lat":43.202087,"lng":-3.561522,"mun":"SOBA","src":"NGBE","code":"2.1.4","id":13350},{"name":"Avellanedo","lat":43.07251,"lng":-4.524414,"mun":"PESAGUERO","src":"NGBE","code":"2.1.4","id":13352},{"name":"Azoños","lat":43.430114,"lng":-3.908509,"mun":"SANTA CRUZ DE BEZANA","src":"NGBE","code":"2.1.4","id":13353},{"name":"Bada","lat":43.090412,"lng":-4.675272,"mun":"VEGA DE LIÉBANA","src":"Histórico","code":"2.1.9","id":322678},{"name":"Bádames","lat":43.355062,"lng":-3.496931,"mun":"VOTO","src":"NGBE","code":"2.1.4","id":13354},{"name":"Bádames","lat":43.355062,"lng":-3.496931,"mun":"VOTO","src":"NGBE","code":"2.1.3","id":13963},{"name":"Balbacienta","lat":43.358276,"lng":-3.312377,"mun":"GURIEZO","src":"NGBE","code":"2.1.9","id":5286},{"name":"Baltezana","lat":43.34113,"lng":-3.171232,"mun":"CASTRO-URDIALES","src":"NGBE","code":"2.1.9","id":5290},{"name":"Bárago","lat":43.071608,"lng":-4.62346,"mun":"VEGA DE LIÉBANA","src":"NGBE","code":"2.1.4","id":13356},{"name":"Baranda","lat":43.446715,"lng":-3.52807,"mun":"ESCALANTE","src":"NGBE","code":"2.1.9","id":5293},{"name":"Bárcena","lat":43.135125,"lng":-4.712912,"mun":"CAMALEÑO","src":"NGBE","code":"2.1.9","id":699},{"name":"Bárcena","lat":43.284729,"lng":-3.437926,"mun":"RAMALES DE LA VICTORIA","src":"NGBE","code":"2.1.6","id":5307},{"name":"Bárcena","lat":43.186523,"lng":-3.900879,"mun":"SANTIURDE DE TORANZO","src":"NGBE","code":"2.1.4","id":13357},{"name":"Bárcena","lat":43.125498,"lng":-4.057998,"mun":"Varios o fuera de Cantabria","src":"NGBE","code":"2.1.4","id":13358},{"name":"Bárcena de Carriedo","lat":43.245483,"lng":-3.828613,"mun":"VILLACARRIEDO","src":"NGBE","code":"2.1.4","id":13360},{"name":"Bárcena de Cudón","lat":43.410705,"lng":-3.996217,"mun":"MIENGO","src":"NGBE","code":"2.1.4","id":13362},{"name":"Bárcena de Ebro","lat":42.852479,"lng":-4.035523,"mun":"VALDERREDIBLE","src":"NGBE","code":"2.1.4","id":13363},{"name":"Bárcena de Pie de Concha","lat":43.125498,"lng":-4.057998,"mun":"Varios o fuera de Cantabria","src":"NGBE","code":"2.1.9","id":700},{"name":"Bárcena de Pie de Concha","lat":43.125498,"lng":-4.057998,"mun":"Varios o fuera de Cantabria","src":"NGBE","code":"2.1.3","id":13971},{"name":"Bárcena Mayor","lat":43.14331,"lng":-4.193725,"mun":"TOJOS (LOS)","src":"NGBE","code":"2.1.4","id":13364},{"name":"Barcenaciones","lat":43.344116,"lng":-4.148682,"mun":"REOCÍN","src":"NGBE","code":"2.1.4","id":13365},{"name":"Barcenilla","lat":43.388305,"lng":-3.955079,"mun":"PIÉLAGOS","src":"NGBE","code":"2.1.4","id":13366},{"name":"Barcenillas","lat":43.241699,"lng":-4.283996,"mun":"RUENTE","src":"NGBE","code":"2.1.9","id":5314},{"name":"Bareyo","lat":43.468077,"lng":-3.600274,"mun":"BAREYO","src":"NGBE","code":"2.1.4","id":13367},{"name":"Baró","lat":43.15271,"lng":-4.68158,"mun":"CAMALEÑO","src":"NGBE","code":"2.1.4","id":13368},{"name":"Barreda","lat":43.086487,"lng":-4.552979,"mun":"PESAGUERO","src":"NGBE","code":"2.1.9","id":5393},{"name":"Barreda","lat":43.368193,"lng":-4.043315,"mun":"TORRELAVEGA","src":"NGBE","code":"2.1.4","id":13369},{"name":"Barrio","lat":43.009888,"lng":-4.229796,"mun":"HERMANDAD DE CAMPOO DE SUSO","src":"NGBE","code":"2.1.9","id":712},{"name":"Barrio","lat":43.009888,"lng":-4.229796,"mun":"HERMANDAD DE CAMPOO DE SUSO","src":"NGBE","code":"2.1.4","id":13370},{"name":"Barrio","lat":43.0723,"lng":-4.673877,"mun":"VEGA DE LIÉBANA","src":"NGBE","code":"2.1.4","id":13371},{"name":"Barrio de Abajo","lat":43.264893,"lng":-4.248413,"mun":"RUENTE","src":"NGBE","code":"2.1.6","id":5397},{"name":"Barrio de Arriba","lat":43.341491,"lng":-3.676084,"mun":"RIOTUERTO","src":"NGBE","code":"2.1.9","id":5398},{"name":"Barrio de Arriba","lat":43.258484,"lng":-4.245788,"mun":"RUENTE","src":"NGBE","code":"2.1.6","id":5399},{"name":"Barrio de la Iglesia","lat":43.38033,"lng":-4.252223,"mun":"RUILOBA","src":"NGBE","code":"2.1.9","id":771},{"name":"Barrio de la Iglesia","lat":43.38033,"lng":-4.252223,"mun":"RUILOBA","src":"NGBE","code":"2.1.3","id":13981},{"name":"Barrio de las Cuevas","lat":43.328771,"lng":-4.350005,"mun":"VALDÁLIGA","src":"NGBE","code":"2.1.6","id":571},{"name":"Barrio Obrero","lat":43.379048,"lng":-4.0376,"mun":"POLANCO","src":"NGBE","code":"2.1.9","id":868},{"name":"Barrio San Pedro","lat":43.329415,"lng":-4.324701,"mun":"VALDÁLIGA","src":"NGBE","code":"2.1.6","id":4412},{"name":"Barriopalacio","lat":43.196106,"lng":-4.013977,"mun":"ANIEVAS","src":"NGBE","code":"2.1.9","id":5402},{"name":"Barriopalacio","lat":42.900513,"lng":-4.183898,"mun":"VALDEOLEA","src":"NGBE","code":"2.1.4","id":13372},{"name":"Barros","lat":43.282898,"lng":-4.07721,"mun":"CORRALES DE BUELNA (LOS)","src":"NGBE","code":"2.1.9","id":5403},{"name":"Barruelo","lat":42.908509,"lng":-4.067078,"mun":"VALDEPRADO DEL RÍO","src":"NGBE","code":"2.1.4","id":13373},{"name":"Barruelo","lat":43.280092,"lng":-3.499079,"mun":"RUESGA","src":"NGBE","code":"2.1.4","id":13374},{"name":"Beares","lat":43.156128,"lng":-4.669617,"mun":"CAMALEÑO","src":"NGBE","code":"2.1.9","id":5409},{"name":"Bedicó","lat":43.321899,"lng":-4.091187,"mun":"CARTES","src":"NGBE","code":"2.1.9","id":5411},{"name":"Bedoya","lat":43.192689,"lng":-4.583131,"mun":"CILLORIGO DE LIÉBANA","src":"NGBE","code":"2.1.5","id":897},{"name":"Bejes","lat":43.24292,"lng":-4.646424,"mun":"CILLORIGO DE LIÉBANA","src":"NGBE","code":"2.1.4","id":13376},{"name":"Bejo","lat":43.090271,"lng":-4.699279,"mun":"VEGA DE LIÉBANA","src":"Histórico","code":"2.1.9","id":322679},{"name":"Belmonte","lat":43.10791,"lng":-4.44458,"mun":"POLACIONES","src":"NGBE","code":"2.1.4","id":13377},{"name":"Beranga","lat":43.413706,"lng":-3.579252,"mun":"HAZAS DE CESTO","src":"NGBE","code":"2.1.4","id":13378},{"name":"Beranga","lat":43.413706,"lng":-3.579252,"mun":"HAZAS DE CESTO","src":"NGBE","code":"2.1.3","id":13987},{"name":"Bercedo","lat":42.866795,"lng":-4.192117,"mun":"VALDEOLEA","src":"NGBE","code":"2.1.9","id":5419},{"name":"Berezales","lat":43.404296,"lng":-3.573299,"mun":"HAZAS DE CESTO","src":"NGBE","code":"2.1.6","id":5550},{"name":"Bernales","lat":43.336043,"lng":-3.408955,"mun":"AMPUERO","src":"NGBE","code":"2.1.9","id":902},{"name":"Berzosa","lat":43.00905,"lng":-4.146805,"mun":"CAMPOO DE ENMEDIO","src":"Autonómico","code":"2.1.6","id":316340},{"name":"Besoy","lat":43.129883,"lng":-4.720703,"mun":"CAMALEÑO","src":"NGBE","code":"2.1.9","id":5432},{"name":"Bezana","lat":43.444518,"lng":-3.895509,"mun":"SANTA CRUZ DE BEZANA","src":"NGBE","code":"2.1.4","id":13380},{"name":"Bielva","lat":43.315125,"lng":-4.464478,"mun":"HERRERÍAS","src":"NGBE","code":"2.1.4","id":13382},{"name":"Bimón","lat":42.989502,"lng":-3.968812,"mun":"ROZAS DE VALDEARROYO (LAS)","src":"NGBE","code":"2.1.4","id":13383},{"name":"Birruezas","lat":43.291523,"lng":-4.326217,"mun":"VALDÁLIGA","src":"NGBE","code":"2.1.6","id":906},{"name":"Bodia","lat":43.141231,"lng":-4.674706,"mun":"CAMALEÑO","src":"NGBE","code":"2.1.9","id":5447},{"name":"Bollacín","lat":43.084693,"lng":-3.89159,"mun":"LUENA","src":"NGBE","code":"2.1.9","id":5450},{"name":"Bolmir","lat":42.989319,"lng":-4.125915,"mun":"CAMPOO DE ENMEDIO","src":"NGBE","code":"2.1.4","id":13384},{"name":"Boo","lat":43.409117,"lng":-3.841186,"mun":"ASTILLERO (EL)","src":"NGBE","code":"2.1.9","id":912},{"name":"Boo","lat":43.431091,"lng":-3.945985,"mun":"PIÉLAGOS","src":"NGBE","code":"2.1.4","id":13385},{"name":"Bores","lat":43.094299,"lng":-4.666809,"mun":"VEGA DE LIÉBANA","src":"NGBE","code":"2.1.4","id":13386},{"name":"Borleña","lat":43.2359,"lng":-3.952088,"mun":"CORVERA DE TORANZO","src":"NGBE","code":"2.1.4","id":13387},{"name":"Bostronizo","lat":43.204895,"lng":-4.046509,"mun":"ARENAS DE IGUÑA","src":"NGBE","code":"2.1.4","id":13388},{"name":"Brez","lat":43.162476,"lng":-4.697998,"mun":"CAMALEÑO","src":"NGBE","code":"2.1.4","id":13389},{"name":"Bucarrero","lat":43.35388,"lng":-3.761106,"mun":"LIÉRGANES","src":"NGBE","code":"2.1.6","id":918},{"name":"Buelles","lat":43.330308,"lng":-4.540867,"mun":"Varios o fuera de Cantabria","src":"NGBE","code":"2.1.5","id":188323},{"name":"Bueras","lat":43.340087,"lng":-3.479124,"mun":"VOTO","src":"NGBE","code":"2.1.4","id":13390},{"name":"Bulco","lat":43.31073,"lng":-3.447996,"mun":"AMPUERO","src":"NGBE","code":"2.1.9","id":5559},{"name":"Burió","lat":43.256326,"lng":-4.520996,"mun":"LAMASÓN","src":"NGBE","code":"2.1.9","id":368},{"name":"Bustablado","lat":43.280883,"lng":-3.65399,"mun":"ARREDONDO","src":"NGBE","code":"2.1.6","id":5571},{"name":"Bustablado","lat":43.335083,"lng":-4.211487,"mun":"CABEZÓN DE LA SAL","src":"NGBE","code":"2.1.4","id":13391},{"name":"Bustaleguín","lat":43.112773,"lng":-3.796549,"mun":"SAN PEDRO DEL ROMERAL","src":"NGBE","code":"2.1.9","id":921},{"name":"Bustamante","lat":43.006714,"lng":-4.007813,"mun":"CAMPOO DE YUSO","src":"NGBE","code":"2.1.4","id":13392},{"name":"Bustancillés","lat":43.177917,"lng":-3.553404,"mun":"SOBA","src":"NGBE","code":"2.1.4","id":13393},{"name":"Bustantegua","lat":43.214905,"lng":-3.755981,"mun":"SELAYA","src":"NGBE","code":"2.1.9","id":5577},{"name":"Bustasur","lat":43.124329,"lng":-3.903687,"mun":"LUENA","src":"NGBE","code":"2.1.9","id":5582},{"name":"Bustasur","lat":42.93573,"lng":-4.031922,"mun":"ROZAS DE VALDEARROYO (LAS)","src":"NGBE","code":"2.1.4","id":13394},{"name":"Bustidoño","lat":42.921876,"lng":-3.989503,"mun":"VALDEPRADO DEL RÍO","src":"NGBE","code":"2.1.9","id":5583},{"name":"Bustillo","lat":43.317343,"lng":-4.350154,"mun":"VALDÁLIGA","src":"NGBE","code":"2.1.6","id":922},{"name":"Bustillo del Monte","lat":42.853516,"lng":-4.009278,"mun":"VALDERREDIBLE","src":"NGBE","code":"2.1.4","id":13395},{"name":"Bustio","lat":43.375119,"lng":-4.519729,"mun":"Varios o fuera de Cantabria","src":"Autonómico","code":"2.1.6","id":19944},{"name":"Bustiyerro","lat":43.111584,"lng":-3.833631,"mun":"SAN PEDRO DEL ROMERAL","src":"NGBE","code":"2.1.9","id":5589},{"name":"Bustriguado","lat":43.295898,"lng":-4.349182,"mun":"VALDÁLIGA","src":"NGBE","code":"2.1.6","id":5592},{"name":"Buyezo","lat":43.119324,"lng":-4.510498,"mun":"CABEZÓN DE LIÉBANA","src":"NGBE","code":"2.1.4","id":13396},{"name":"Cabañas de la Sierra","lat":43.308715,"lng":-3.287294,"mun":"GURIEZO","src":"NGBE","code":"2.1.9","id":4476},{"name":"Cabañes","lat":43.212525,"lng":-4.617127,"mun":"CILLORIGO DE LIÉBANA","src":"NGBE","code":"2.1.4","id":13398},{"name":"Cabanzón","lat":43.321473,"lng":-4.498292,"mun":"HERRERÍAS","src":"NGBE","code":"2.1.4","id":13397},{"name":"Cabárceno","lat":43.358275,"lng":-3.822875,"mun":"PENAGOS","src":"NGBE","code":"2.1.4","id":13399},{"name":"Cabezón de la Sal","lat":43.308896,"lng":-4.236798,"mun":"CABEZÓN DE LA SAL","src":"NGBE","code":"2.1.9","id":950},{"name":"Cabezón de la Sal","lat":43.308896,"lng":-4.236798,"mun":"CABEZÓN DE LA SAL","src":"NGBE","code":"2.1.3","id":14011},{"name":"Cabezón de Liébana","lat":43.133615,"lng":-4.57534,"mun":"CABEZÓN DE LIÉBANA","src":"NGBE","code":"2.1.3","id":13292},{"name":"Cabezón de Liébana","lat":43.133615,"lng":-4.57534,"mun":"CABEZÓN DE LIÉBANA","src":"NGBE","code":"2.1.4","id":13400},{"name":"Caborredondo","lat":43.398674,"lng":-4.155325,"mun":"ALFOZ DE LLOREDO","src":"NGBE","code":"2.1.6","id":5628},{"name":"Cabrojo","lat":43.329285,"lng":-4.194214,"mun":"CABEZÓN DE LA SAL","src":"NGBE","code":"2.1.9","id":951},{"name":"Cabrojo","lat":43.254795,"lng":-4.399052,"mun":"RIONANSA","src":"NGBE","code":"2.1.6","id":5636},{"name":"Cabrojo","lat":43.329285,"lng":-4.194214,"mun":"CABEZÓN DE LA SAL","src":"NGBE","code":"2.1.4","id":13402},{"name":"Caceo","lat":43.153502,"lng":-4.048148,"mun":"MOLLEDO","src":"NGBE","code":"2.1.6","id":5639},{"name":"Cacicedo","lat":43.434691,"lng":-3.873902,"mun":"CAMARGO","src":"NGBE","code":"2.1.4","id":13403},{"name":"Cadalso","lat":42.832887,"lng":-3.8855,"mun":"VALDERREDIBLE","src":"NGBE","code":"2.1.4","id":13404},{"name":"Cades","lat":43.304078,"lng":-4.468506,"mun":"HERRERÍAS","src":"NGBE","code":"2.1.4","id":13405},{"name":"Cahecho","lat":43.160523,"lng":-4.553406,"mun":"CABEZÓN DE LIÉBANA","src":"NGBE","code":"2.1.4","id":13406},{"name":"Caldas","lat":43.251712,"lng":-4.599673,"mun":"PEÑARRUBIA","src":"NGBE","code":"2.1.9","id":5653},{"name":"Calga","lat":43.200073,"lng":-4.020081,"mun":"ANIEVAS","src":"NGBE","code":"2.1.9","id":5660},{"name":"Callecedo","lat":43.109131,"lng":-4.419799,"mun":"POLACIONES","src":"NGBE","code":"2.1.9","id":959},{"name":"Caloca","lat":43.042114,"lng":-4.561706,"mun":"PESAGUERO","src":"NGBE","code":"2.1.4","id":13407},{"name":"Calseca","lat":43.240295,"lng":-3.690978,"mun":"RUESGA","src":"NGBE","code":"2.1.4","id":13408},{"name":"Camaleño","lat":43.150696,"lng":-4.694702,"mun":"CAMALEÑO","src":"NGBE","code":"2.1.9","id":960},{"name":"Camaleño","lat":43.150696,"lng":-4.694702,"mun":"CAMALEÑO","src":"NGBE","code":"2.1.3","id":14022},{"name":"Camargo","lat":43.405047,"lng":-3.884732,"mun":"CAMARGO","src":"NGBE","code":"2.1.4","id":13409},{"name":"Cambarco","lat":43.149933,"lng":-4.563136,"mun":"CABEZÓN DE LIÉBANA","src":"NGBE","code":"2.1.4","id":13410},{"name":"Camesa","lat":42.895875,"lng":-4.166626,"mun":"VALDEOLEA","src":"NGBE","code":"2.1.4","id":13411},{"name":"Camijanes","lat":43.328126,"lng":-4.484925,"mun":"HERRERÍAS","src":"NGBE","code":"2.1.4","id":13412},{"name":"Camino","lat":43.034485,"lng":-4.171508,"mun":"HERMANDAD DE CAMPOO DE SUSO","src":"NGBE","code":"2.1.4","id":13413},{"name":"Campillo","lat":43.205871,"lng":-3.759582,"mun":"SELAYA","src":"NGBE","code":"2.1.6","id":1645},{"name":"Campillo","lat":43.205871,"lng":-3.759582,"mun":"SELAYA","src":"NGBE","code":"2.1.9","id":5694},{"name":"Camplengo","lat":43.393494,"lng":-4.093384,"mun":"SANTILLANA DEL MAR","src":"NGBE","code":"2.1.9","id":5704},{"name":"Campo de Ebro","lat":42.795772,"lng":-3.96603,"mun":"VALDERREDIBLE","src":"NGBE","code":"2.1.4","id":13414},{"name":"Campollo","lat":43.121277,"lng":-4.654297,"mun":"VEGA DE LIÉBANA","src":"NGBE","code":"2.1.4","id":13415},{"name":"Campu","lat":42.999962,"lng":-4.250855,"mun":"HERMANDAD DE CAMPOO DE SUSO","src":"Autonómico","code":"2.1.6","id":316346},{"name":"Campuzano","lat":43.341135,"lng":-4.058201,"mun":"TORRELAVEGA","src":"NGBE","code":"2.1.9","id":5797},{"name":"Canales","lat":43.34552,"lng":-4.270019,"mun":"UDÍAS","src":"NGBE","code":"2.1.9","id":5876},{"name":"Candenosa","lat":42.852906,"lng":-4.121826,"mun":"VALDEPRADO DEL RÍO","src":"NGBE","code":"2.1.4","id":13416},{"name":"Candolías","lat":43.157715,"lng":-3.802002,"mun":"VEGA DE PAS","src":"NGBE","code":"2.1.9","id":1166},{"name":"Cañeda","lat":43.01831,"lng":-4.118408,"mun":"CAMPOO DE ENMEDIO","src":"NGBE","code":"2.1.4","id":13418},{"name":"Cañedo","lat":43.181274,"lng":-3.575011,"mun":"SOBA","src":"NGBE","code":"2.1.4","id":13419},{"name":"Cara","lat":43.375305,"lng":-4.337891,"mun":"VALDÁLIGA","src":"NGBE","code":"2.1.6","id":5926},{"name":"Caranceja","lat":43.336121,"lng":-4.169189,"mun":"REOCÍN","src":"NGBE","code":"2.1.4","id":13420},{"name":"Carandía","lat":43.337096,"lng":-3.975403,"mun":"PIÉLAGOS","src":"NGBE","code":"2.1.4","id":13421},{"name":"Carasa","lat":43.37152,"lng":-3.460691,"mun":"VOTO","src":"NGBE","code":"2.1.4","id":13422},{"name":"Carazón","lat":43.335326,"lng":-3.322022,"mun":"GURIEZO","src":"NGBE","code":"2.1.9","id":1188},{"name":"Carite","lat":43.417245,"lng":-3.577415,"mun":"HAZAS DE CESTO","src":"Autonómico","code":"2.1.6","id":88206},{"name":"Carmona","lat":43.254089,"lng":-4.358887,"mun":"CABUÉRNIGA","src":"NGBE","code":"2.1.4","id":13423},{"name":"Carnerizas","lat":43.409484,"lng":-3.481807,"mun":"BÁRCENA DE CICERO","src":"NGBE","code":"2.1.6","id":1191},{"name":"Carrales","lat":43.309011,"lng":-3.573257,"mun":"RUESGA","src":"Autonómico","code":"2.1.6","id":175109},{"name":"Carrascal de Cocejón","lat":43.090088,"lng":-3.871583,"mun":"LUENA","src":"NGBE","code":"2.1.4","id":13424},{"name":"Carrascal de San Miguel","lat":43.092285,"lng":-3.916077,"mun":"LUENA","src":"NGBE","code":"2.1.9","id":5950},{"name":"Carrastrada","lat":43.399109,"lng":-4.169311,"mun":"ALFOZ DE LLOREDO","src":"NGBE","code":"2.1.6","id":5955},{"name":"Carrejo","lat":43.293884,"lng":-4.237488,"mun":"CABEZÓN DE LA SAL","src":"NGBE","code":"2.1.4","id":13426},{"name":"Carriazo","lat":43.451358,"lng":-3.681107,"mun":"RIBAMONTÁN AL MAR","src":"NGBE","code":"2.1.4","id":13427},{"name":"Carriazo","lat":43.451358,"lng":-3.681107,"mun":"RIBAMONTÁN AL MAR","src":"NGBE","code":"2.1.3","id":14044},{"name":"Cartes","lat":43.323444,"lng":-4.069856,"mun":"Varios o fuera de Cantabria","src":"NGBE","code":"2.1.9","id":1194},{"name":"Cartes","lat":43.323444,"lng":-4.069856,"mun":"Varios o fuera de Cantabria","src":"NGBE","code":"2.1.3","id":14047},{"name":"Casa del Monte","lat":43.341673,"lng":-3.788695,"mun":"LIÉRGANES","src":"NGBE","code":"2.1.6","id":1270},{"name":"Casamaría","lat":43.318116,"lng":-4.513001,"mun":"HERRERÍAS","src":"NGBE","code":"2.1.4","id":13429},{"name":"Casar","lat":43.33728,"lng":-4.177185,"mun":"CABEZÓN DE LA SAL","src":"NGBE","code":"2.1.4","id":13430},{"name":"Casares y Quevedo","lat":43.128723,"lng":-4.036987,"mun":"MOLLEDO","src":"NGBE","code":"2.1.6","id":154},{"name":"Casasola","lat":43.388489,"lng":-4.269409,"mun":"RUILOBA","src":"NGBE","code":"2.1.9","id":5996},{"name":"Casavieja","lat":43.2901,"lng":-3.388488,"mun":"RASINES","src":"NGBE","code":"2.1.9","id":5997},{"name":"Castanedo","lat":43.447324,"lng":-3.696406,"mun":"RIBAMONTÁN AL MAR","src":"NGBE","code":"2.1.4","id":13431},{"name":"Castillo","lat":43.457091,"lng":-3.553216,"mun":"ARNUERO","src":"NGBE","code":"2.1.4","id":13432},{"name":"Castillo Pedroso","lat":43.216675,"lng":-3.96991,"mun":"CORVERA DE TORANZO","src":"NGBE","code":"2.1.4","id":13433},{"name":"Castrillo de Valdelomar","lat":42.797119,"lng":-4.122924,"mun":"VALDERREDIBLE","src":"NGBE","code":"2.1.4","id":13434},{"name":"Castrillo del Haya","lat":42.911927,"lng":-4.173095,"mun":"VALDEOLEA","src":"NGBE","code":"2.1.4","id":13435},{"name":"Castro-Cillorigo","lat":43.197327,"lng":-4.602723,"mun":"CILLORIGO DE LIÉBANA","src":"NGBE","code":"2.1.4","id":13436},{"name":"Castro-Urdiales","lat":43.383768,"lng":-3.217759,"mun":"CASTRO-URDIALES","src":"NGBE","code":"2.1.9","id":1382},{"name":"Castro-Urdiales","lat":43.383768,"lng":-3.217759,"mun":"CASTRO-URDIALES","src":"NGBE","code":"2.1.3","id":14061},{"name":"Casuso","lat":43.412291,"lng":-3.546992,"mun":"BÁRCENA DE CICERO","src":"NGBE","code":"2.1.6","id":1383},{"name":"Caviedes","lat":43.339478,"lng":-4.326477,"mun":"VALDÁLIGA","src":"NGBE","code":"2.1.4","id":13437},{"name":"Caviña","lat":43.308933,"lng":-4.390587,"mun":"VALDÁLIGA","src":"NGBE","code":"2.1.6","id":6053},{"name":"Cazpurrión","lat":43.11969,"lng":-3.903809,"mun":"LUENA","src":"NGBE","code":"2.1.9","id":6056},{"name":"Ceceñas","lat":43.374381,"lng":-3.717302,"mun":"MEDIO CUDEYO","src":"NGBE","code":"2.1.4","id":13438},{"name":"Ceceño","lat":43.38269,"lng":-4.325989,"mun":"VALDÁLIGA","src":"NGBE","code":"2.1.6","id":6058},{"name":"Cejancas","lat":42.87909,"lng":-3.907411,"mun":"VALDERREDIBLE","src":"NGBE","code":"2.1.4","id":13439},{"name":"Celada de los Calderones","lat":43.016296,"lng":-4.25299,"mun":"HERMANDAD DE CAMPOO DE SUSO","src":"NGBE","code":"2.1.4","id":13440},{"name":"Celada-Marlantes","lat":42.946899,"lng":-4.104492,"mun":"CAMPOO DE ENMEDIO","src":"NGBE","code":"2.1.4","id":13441},{"name":"Celis","lat":43.282715,"lng":-4.434693,"mun":"RIONANSA","src":"NGBE","code":"2.1.4","id":13442},{"name":"Celucos","lat":43.275696,"lng":-4.433106,"mun":"RIONANSA","src":"NGBE","code":"2.1.9","id":6066},{"name":"Cerbiago","lat":43.34851,"lng":-3.407591,"mun":"AMPUERO","src":"NGBE","code":"2.1.9","id":6070},{"name":"Cerdigo","lat":43.399903,"lng":-3.265806,"mun":"CASTRO-URDIALES","src":"NGBE","code":"2.1.4","id":13443},{"name":"Cereceda","lat":43.318298,"lng":-3.415282,"mun":"RASINES","src":"NGBE","code":"2.1.9","id":6072},{"name":"Cerecedas","lat":43.454894,"lng":-3.494684,"mun":"ARGOÑOS","src":"NGBE","code":"2.1.9","id":1399},{"name":"Cerrazo","lat":43.364929,"lng":-4.121887,"mun":"REOCÍN","src":"NGBE","code":"2.1.4","id":13444},{"name":"Cervatos","lat":42.956299,"lng":-4.146911,"mun":"CAMPOO DE ENMEDIO","src":"NGBE","code":"2.1.4","id":13445},{"name":"Cicera","lat":43.235902,"lng":-4.550599,"mun":"PEÑARRUBIA","src":"NGBE","code":"2.1.9","id":6114},{"name":"Cicero","lat":43.410278,"lng":-3.487178,"mun":"BÁRCENA DE CICERO","src":"NGBE","code":"2.1.4","id":13446},{"name":"Cigüenza","lat":43.387878,"lng":-4.179992,"mun":"ALFOZ DE LLOREDO","src":"NGBE","code":"2.1.4","id":13447},{"name":"Cires","lat":43.242676,"lng":-4.49939,"mun":"LAMASÓN","src":"NGBE","code":"2.1.9","id":6130},{"name":"Cobejo","lat":43.127502,"lng":-4.062195,"mun":"MOLLEDO","src":"NGBE","code":"2.1.4","id":13448},{"name":"Cobeña","lat":43.192689,"lng":-4.583314,"mun":"CILLORIGO DE LIÉBANA","src":"NGBE","code":"2.1.9","id":6136},{"name":"Cobijón","lat":43.340515,"lng":-4.238098,"mun":"UDÍAS","src":"NGBE","code":"2.1.9","id":6138},{"name":"Cóbreces","lat":43.387638,"lng":-4.214513,"mun":"ALFOZ DE LLOREDO","src":"NGBE","code":"2.1.4","id":13449},{"name":"Cohiño","lat":43.189029,"lng":-4.080209,"mun":"ARENAS DE IGUÑA","src":"NGBE","code":"2.1.9","id":1413},{"name":"Colindres","lat":43.395023,"lng":-3.44674,"mun":"COLINDRES","src":"NGBE","code":"2.1.9","id":1417},{"name":"Colindres","lat":43.395023,"lng":-3.44674,"mun":"COLINDRES","src":"NGBE","code":"2.1.3","id":14080},{"name":"Colio","lat":43.193786,"lng":-4.6326,"mun":"CILLORIGO DE LIÉBANA","src":"NGBE","code":"2.1.4","id":13450},{"name":"Collado","lat":43.239929,"lng":-4.09668,"mun":"CIEZA","src":"NGBE","code":"2.1.9","id":6176},{"name":"Colsa","lat":43.154376,"lng":-4.267395,"mun":"TOJOS (LOS)","src":"NGBE","code":"2.1.6","id":6259},{"name":"Colsedo","lat":43.331861,"lng":-3.561502,"mun":"VOTO","src":"Autonómico","code":"2.1.6","id":137638},{"name":"Comillas","lat":43.385153,"lng":-4.291634,"mun":"COMILLAS","src":"NGBE","code":"2.1.9","id":1454},{"name":"Comillas","lat":43.385153,"lng":-4.291634,"mun":"COMILLAS","src":"NGBE","code":"2.1.3","id":14083},{"name":"Concha","lat":43.385925,"lng":-4.265991,"mun":"RUILOBA","src":"NGBE","code":"2.1.9","id":6267},{"name":"Congarna","lat":43.155884,"lng":-4.660889,"mun":"CAMALEÑO","src":"NGBE","code":"2.1.9","id":6273},{"name":"Coo","lat":43.275085,"lng":-4.106079,"mun":"CORRALES DE BUELNA (LOS)","src":"NGBE","code":"2.1.4","id":13451},{"name":"Corada","lat":42.8089,"lng":-3.966005,"mun":"VALDERREDIBLE","src":"Autonómico","code":"2.1.6","id":316348},{"name":"Corconte","lat":43.040396,"lng":-3.893641,"mun":"CAMPOO DE YUSO","src":"NGBE","code":"2.1.4","id":13452},{"name":"Cornoció","lat":43.424003,"lng":-3.536298,"mun":"ESCALANTE","src":"NGBE","code":"2.1.9","id":6295},{"name":"Coroneles","lat":42.823731,"lng":-4.07721,"mun":"VALDERREDIBLE","src":"NGBE","code":"2.1.4","id":13453},{"name":"Corral","lat":43.304133,"lng":-4.09934,"mun":"CARTES","src":"NGBE","code":"2.1.9","id":6304},{"name":"Correpoco","lat":43.169128,"lng":-4.274108,"mun":"TOJOS (LOS)","src":"NGBE","code":"2.1.4","id":13454},{"name":"Correpoco","lat":43.169128,"lng":-4.274108,"mun":"TOJOS (LOS)","src":"NGBE","code":"2.1.3","id":14086},{"name":"Cortiguera","lat":43.409301,"lng":-4.038819,"mun":"SUANCES","src":"NGBE","code":"2.1.4","id":13456},{"name":"Corvera","lat":43.266113,"lng":-3.947022,"mun":"CORVERA DE TORANZO","src":"NGBE","code":"2.1.4","id":13457},{"name":"Corvera","lat":43.284427,"lng":-3.645625,"mun":"ARREDONDO","src":"Autonómico","code":"2.1.6","id":173093},{"name":"Cos","lat":43.289917,"lng":-4.224914,"mun":"MAZCUERRAS","src":"NGBE","code":"2.1.4","id":13458},{"name":"Cosgaya","lat":43.109131,"lng":-4.727111,"mun":"CAMALEÑO","src":"NGBE","code":"2.1.4","id":13459},{"name":"Cosío","lat":43.233521,"lng":-4.400086,"mun":"RIONANSA","src":"NGBE","code":"2.1.4","id":13460},{"name":"Coterillo","lat":43.331726,"lng":-3.434874,"mun":"AMPUERO","src":"NGBE","code":"2.1.9","id":1481},{"name":"Cotillo","lat":43.20227,"lng":-4.004822,"mun":"ANIEVAS","src":"NGBE","code":"2.1.9","id":1497},{"name":"Cotillo","lat":43.20227,"lng":-4.004822,"mun":"ANIEVAS","src":"NGBE","code":"2.1.3","id":14098},{"name":"Cotillos","lat":43.090271,"lng":-4.457275,"mun":"POLACIONES","src":"NGBE","code":"2.1.4","id":13461},{"name":"Coz de Monte","lat":43.382079,"lng":-3.476681,"mun":"BÁRCENA DE CICERO","src":"NGBE","code":"2.1.6","id":1508},{"name":"Cubas","lat":43.424497,"lng":-3.708492,"mun":"RIBAMONTÁN AL MONTE","src":"NGBE","code":"2.1.4","id":13462},{"name":"Cubillas","lat":43.270245,"lng":-3.448572,"mun":"RAMALES DE LA VICTORIA","src":"NGBE","code":"2.1.6","id":1519},{"name":"Cubillo de Ebro","lat":42.808899,"lng":-4.032105,"mun":"VALDERREDIBLE","src":"NGBE","code":"2.1.4","id":13463},{"name":"Cucayo","lat":43.055761,"lng":-4.637088,"mun":"VEGA DE LIÉBANA","src":"NGBE","code":"2.1.6","id":6459},{"name":"Cuchía","lat":43.43872,"lng":-4.017029,"mun":"MIENGO","src":"NGBE","code":"2.1.4","id":13464},{"name":"Cudón","lat":43.415445,"lng":-4.012724,"mun":"MIENGO","src":"NGBE","code":"2.1.4","id":13465},{"name":"Cuena","lat":42.856507,"lng":-4.21051,"mun":"VALDEOLEA","src":"NGBE","code":"2.1.4","id":13466},{"name":"Cueto","lat":43.48352,"lng":-3.806213,"mun":"SANTANDER","src":"NGBE","code":"2.1.9","id":6531},{"name":"Cueva","lat":43.066101,"lng":-4.495483,"mun":"PESAGUERO","src":"NGBE","code":"2.1.4","id":13467},{"name":"Dobares","lat":43.093689,"lng":-4.687988,"mun":"VEGA DE LIÉBANA","src":"NGBE","code":"2.1.6","id":6629},{"name":"Dobarganes","lat":43.102905,"lng":-4.692016,"mun":"VEGA DE LIÉBANA","src":"NGBE","code":"2.1.4","id":13468},{"name":"Dobres","lat":43.062317,"lng":-4.641784,"mun":"VEGA DE LIÉBANA","src":"NGBE","code":"2.1.4","id":13469},{"name":"Duález","lat":43.363606,"lng":-4.059678,"mun":"TORRELAVEGA","src":"NGBE","code":"2.1.9","id":1603},{"name":"Dueso","lat":43.458129,"lng":-3.455499,"mun":"SANTOÑA","src":"NGBE","code":"2.1.9","id":6637},{"name":"Duña","lat":43.335693,"lng":-4.217407,"mun":"CABEZÓN DE LA SAL","src":"NGBE","code":"2.1.9","id":6641},{"name":"El Alvareo","lat":43.433287,"lng":-3.556696,"mun":"ESCALANTE","src":"NGBE","code":"2.1.9","id":6679},{"name":"El Ansar","lat":43.315918,"lng":-4.301392,"mun":"VALDÁLIGA","src":"NGBE","code":"2.1.6","id":1610},{"name":"El Arroyo","lat":43.091342,"lng":-4.700882,"mun":"VEGA DE LIÉBANA","src":"NGBE","code":"2.1.6","id":1613},{"name":"El Arroyo","lat":43.404297,"lng":-4.128113,"mun":"SANTILLANA DEL MAR","src":"NGBE","code":"2.1.6","id":6704},{"name":"El Astillero","lat":43.400316,"lng":-3.819159,"mun":"ASTILLERO (EL)","src":"NGBE","code":"2.1.9","id":1615},{"name":"El Astillero","lat":43.400316,"lng":-3.819159,"mun":"ASTILLERO (EL)","src":"NGBE","code":"2.1.3","id":14117},{"name":"El Avellanal","lat":43.280088,"lng":-3.662535,"mun":"ARREDONDO","src":"NGBE","code":"2.1.9","id":1616},{"name":"El Bao","lat":43.411641,"lng":-3.491608,"mun":"BÁRCENA DE CICERO","src":"NGBE","code":"2.1.6","id":1618},{"name":"El Barcenal","lat":43.341675,"lng":-4.387085,"mun":"SAN VICENTE DE LA BARQUERA","src":"NGBE","code":"2.1.9","id":6719},{"name":"El Bosque","lat":43.393309,"lng":-3.717709,"mun":"ENTRAMBASAGUAS","src":"NGBE","code":"2.1.9","id":1630},{"name":"El Callejo","lat":43.400085,"lng":-3.4389,"mun":"LAREDO","src":"NGBE","code":"2.1.9","id":6791},{"name":"El Camino","lat":43.353515,"lng":-3.417784,"mun":"AMPUERO","src":"NGBE","code":"2.1.9","id":1644},{"name":"El Campo","lat":43.264282,"lng":-3.268923,"mun":"VALLE DE VILLAVERDE","src":"NGBE","code":"2.1.9","id":1649},{"name":"El Cerro","lat":43.297485,"lng":-3.43231,"mun":"RASINES","src":"NGBE","code":"2.1.9","id":6901},{"name":"El Cocejón","lat":43.087972,"lng":-3.864372,"mun":"LUENA","src":"NGBE","code":"2.1.9","id":4014},{"name":"El Collado","lat":43.331999,"lng":-4.492439,"mun":"HERRERÍAS","src":"NGBE","code":"2.1.6","id":1670},{"name":"El Condado","lat":43.345091,"lng":-3.791014,"mun":"LIÉRGANES","src":"NGBE","code":"2.1.6","id":1672},{"name":"El Cristo","lat":43.412108,"lng":-3.512691,"mun":"BÁRCENA DE CICERO","src":"NGBE","code":"2.1.6","id":1692},{"name":"El Escobal","lat":43.38241,"lng":-3.539882,"mun":"Varios o fuera de Cantabria","src":"NGBE","code":"2.1.6","id":7064},{"name":"El Haya","lat":42.908509,"lng":-4.156494,"mun":"VALDEOLEA","src":"NGBE","code":"2.1.9","id":7103},{"name":"El Llano","lat":43.350271,"lng":-3.339819,"mun":"GURIEZO","src":"NGBE","code":"2.1.9","id":1740},{"name":"El Llano","lat":43.334106,"lng":-4.241699,"mun":"UDÍAS","src":"NGBE","code":"2.1.9","id":7170},{"name":"El Manzanal","lat":43.421896,"lng":-3.505764,"mun":"BÁRCENA DE CICERO","src":"NGBE","code":"2.1.6","id":1743},{"name":"El Mazo","lat":43.254272,"lng":-3.486875,"mun":"RAMALES DE LA VICTORIA","src":"NGBE","code":"2.1.6","id":1746},{"name":"El Mazo","lat":43.321274,"lng":-4.339179,"mun":"VALDÁLIGA","src":"NGBE","code":"2.1.6","id":7195},{"name":"El Mercadillo","lat":43.342644,"lng":-3.744551,"mun":"LIÉRGANES","src":"NGBE","code":"2.1.6","id":7198},{"name":"El Molino","lat":43.280132,"lng":-3.632062,"mun":"ARREDONDO","src":"Autonómico","code":"2.1.6","id":173515},{"name":"El Perujo","lat":43.335153,"lng":-3.379648,"mun":"AMPUERO","src":"NGBE","code":"2.1.9","id":1772},{"name":"El Pico","lat":43.40808,"lng":-3.530025,"mun":"BÁRCENA DE CICERO","src":"NGBE","code":"2.1.6","id":1775},{"name":"El Prado","lat":43.157469,"lng":-3.430296,"mun":"SOBA","src":"NGBE","code":"2.1.4","id":13470},{"name":"El Puente","lat":43.348942,"lng":-3.326113,"mun":"GURIEZO","src":"NGBE","code":"2.1.9","id":1804},{"name":"El Puente","lat":43.348942,"lng":-3.326113,"mun":"GURIEZO","src":"NGBE","code":"2.1.3","id":14120},{"name":"El Rellano","lat":43.31561,"lng":-3.727394,"mun":"LIÉRGANES","src":"NGBE","code":"2.1.6","id":1816},{"name":"El Risco","lat":43.37628,"lng":-3.700192,"mun":"ENTRAMBASAGUAS","src":"NGBE","code":"2.1.6","id":1823},{"name":"El Rosario","lat":43.115479,"lng":-3.841797,"mun":"SAN PEDRO DEL ROMERAL","src":"NGBE","code":"2.1.6","id":7465},{"name":"El Tejo","lat":43.372508,"lng":-4.338747,"mun":"VALDÁLIGA","src":"NGBE","code":"2.1.4","id":13472},{"name":"El Tojo","lat":43.159912,"lng":-4.284118,"mun":"TOJOS (LOS)","src":"NGBE","code":"2.1.4","id":13473},{"name":"El Turujal","lat":43.317021,"lng":-4.277332,"mun":"VALDÁLIGA","src":"NGBE","code":"2.1.6","id":1843},{"name":"El Valle","lat":43.363892,"lng":-4.289795,"mun":"COMILLAS","src":"NGBE","code":"2.1.4","id":13474},{"name":"El Vear","lat":43.306491,"lng":-4.350418,"mun":"VALDÁLIGA","src":"NGBE","code":"2.1.6","id":1848},{"name":"Elechas","lat":43.425901,"lng":-3.773374,"mun":"MARINA DE CUDEYO","src":"NGBE","code":"2.1.4","id":13475},{"name":"Encimabiá","lat":43.020932,"lng":-4.295659,"mun":"HERMANDAD DE CAMPOO DE SUSO","src":"Autonómico","code":"2.1.6","id":263120},{"name":"Enterría","lat":43.128962,"lng":-4.727835,"mun":"CAMALEÑO","src":"NGBE","code":"2.1.9","id":4521},{"name":"Enterrías","lat":43.097717,"lng":-4.679626,"mun":"VEGA DE LIÉBANA","src":"NGBE","code":"2.1.4","id":13476},{"name":"Entrambasaguas","lat":43.379113,"lng":-3.682954,"mun":"ENTRAMBASAGUAS","src":"NGBE","code":"2.1.9","id":1858},{"name":"Entrambasaguas","lat":43.009521,"lng":-4.280394,"mun":"HERMANDAD DE CAMPOO DE SUSO","src":"NGBE","code":"2.1.4","id":13477},{"name":"Entrambasaguas","lat":43.379113,"lng":-3.682954,"mun":"ENTRAMBASAGUAS","src":"NGBE","code":"2.1.3","id":14126},{"name":"Entrambasmestas","lat":43.166687,"lng":-3.895508,"mun":"LUENA","src":"NGBE","code":"2.1.4","id":13478},{"name":"Entre las Hazas","lat":43.278479,"lng":-3.649018,"mun":"ARREDONDO","src":"Autonómico","code":"2.1.6","id":173097},{"name":"Entrepuentes","lat":43.258516,"lng":-3.473333,"mun":"RAMALES DE LA VICTORIA","src":"NGBE","code":"2.1.6","id":7686},{"name":"Esanos","lat":43.180909,"lng":-4.57251,"mun":"CILLORIGO DE LIÉBANA","src":"NGBE","code":"2.1.9","id":7814},{"name":"Esanos","lat":43.180909,"lng":-4.57251,"mun":"CILLORIGO DE LIÉBANA","src":"NGBE","code":"2.1.4","id":13479},{"name":"Escalante","lat":43.437468,"lng":-3.514183,"mun":"ESCALANTE","src":"NGBE","code":"2.1.9","id":1901},{"name":"Escalante","lat":43.437468,"lng":-3.514183,"mun":"ESCALANTE","src":"NGBE","code":"2.1.3","id":14131},{"name":"Escobedo","lat":43.401007,"lng":-3.905093,"mun":"CAMARGO","src":"NGBE","code":"2.1.9","id":470},{"name":"Escobedo","lat":43.401007,"lng":-3.905093,"mun":"CAMARGO","src":"NGBE","code":"2.1.4","id":13480},{"name":"Escobedo","lat":43.267516,"lng":-3.906677,"mun":"VILLAFUFRE","src":"NGBE","code":"2.1.4","id":14132},{"name":"Esles","lat":43.28192,"lng":-3.803588,"mun":"SANTA MARÍA DE CAYÓN","src":"NGBE","code":"2.1.4","id":13482},{"name":"Espinama","lat":43.128479,"lng":-4.786376,"mun":"CAMALEÑO","src":"NGBE","code":"2.1.4","id":13483},{"name":"Espinilla","lat":43.022076,"lng":-4.225922,"mun":"HERMANDAD DE CAMPOO DE SUSO","src":"NGBE","code":"2.1.4","id":13484},{"name":"Espinilla","lat":43.022076,"lng":-4.225922,"mun":"HERMANDAD DE CAMPOO DE SUSO","src":"NGBE","code":"2.1.3","id":14136},{"name":"Espinosa","lat":42.928705,"lng":-4.217488,"mun":"VALDEOLEA","src":"NGBE","code":"2.1.6","id":7836},{"name":"Espinosa de Bricia","lat":42.872681,"lng":-3.862306,"mun":"VALDERREDIBLE","src":"NGBE","code":"2.1.4","id":13486},{"name":"Esponzués","lat":43.205688,"lng":-3.954712,"mun":"CORVERA DE TORANZO","src":"NGBE","code":"2.1.4","id":13487},{"name":"Estián","lat":43.420287,"lng":-3.547786,"mun":"BÁRCENA DE CICERO","src":"NGBE","code":"2.1.6","id":1935},{"name":"Estrada","lat":43.358094,"lng":-4.445801,"mun":"VAL DE SAN VICENTE","src":"NGBE","code":"2.1.9","id":7841},{"name":"Extremera","lat":43.325322,"lng":-3.725024,"mun":"LIÉRGANES","src":"NGBE","code":"2.1.6","id":1938},{"name":"Fombellida","lat":42.934509,"lng":-4.120178,"mun":"CAMPOO DE ENMEDIO","src":"NGBE","code":"2.1.4","id":13488},{"name":"Fontecha","lat":43.030884,"lng":-4.148986,"mun":"CAMPOO DE ENMEDIO","src":"NGBE","code":"2.1.4","id":13489},{"name":"Fontibre","lat":43.0177,"lng":-4.188476,"mun":"HERMANDAD DE CAMPOO DE SUSO","src":"NGBE","code":"2.1.4","id":13490},{"name":"Frama","lat":43.148614,"lng":-4.593519,"mun":"CABEZÓN DE LIÉBANA","src":"NGBE","code":"2.1.4","id":13491},{"name":"Francos","lat":43.356079,"lng":-3.316284,"mun":"GURIEZO","src":"NGBE","code":"2.1.9","id":7868},{"name":"Fresneda","lat":43.180908,"lng":-4.297729,"mun":"CABUÉRNIGA","src":"NGBE","code":"2.1.4","id":13492},{"name":"Fresnedo","lat":43.189086,"lng":-3.473875,"mun":"SOBA","src":"NGBE","code":"2.1.9","id":7872},{"name":"Fresnedo","lat":43.363525,"lng":-4.160827,"mun":"ALFOZ DE LLOREDO","src":"NGBE","code":"2.1.6","id":7873},{"name":"Fresnedo","lat":43.365478,"lng":-3.570797,"mun":"SOLÓRZANO","src":"NGBE","code":"2.1.4","id":13493},{"name":"Fresno","lat":43.312317,"lng":-3.445311,"mun":"RASINES","src":"NGBE","code":"2.1.9","id":7874},{"name":"Fresno del Río","lat":43.01709,"lng":-4.143676,"mun":"CAMPOO DE ENMEDIO","src":"NGBE","code":"2.1.4","id":13494},{"name":"Fuente Dé","lat":43.144104,"lng":-4.812011,"mun":"CAMALEÑO","src":"NGBE","code":"2.1.9","id":1968},{"name":"Gajano","lat":43.411924,"lng":-3.766111,"mun":"MARINA DE CUDEYO","src":"NGBE","code":"2.1.4","id":13495},{"name":"Galizano","lat":43.468504,"lng":-3.671198,"mun":"RIBAMONTÁN AL MAR","src":"NGBE","code":"2.1.4","id":13496},{"name":"Gama","lat":43.424552,"lng":-3.523014,"mun":"Varios o fuera de Cantabria","src":"NGBE","code":"2.1.9","id":2155},{"name":"Gama","lat":43.424552,"lng":-3.523014,"mun":"Varios o fuera de Cantabria","src":"NGBE","code":"2.1.4","id":13497},{"name":"Gama","lat":43.424552,"lng":-3.523014,"mun":"Varios o fuera de Cantabria","src":"NGBE","code":"2.1.3","id":14149},{"name":"Gancedo","lat":43.346246,"lng":-3.783657,"mun":"LIÉRGANES","src":"NGBE","code":"2.1.6","id":7967},{"name":"Gandarilla","lat":43.340882,"lng":-4.424011,"mun":"SAN VICENTE DE LA BARQUERA","src":"NGBE","code":"2.1.4","id":13500},{"name":"Ganzo","lat":43.35968,"lng":-4.065796,"mun":"TORRELAVEGA","src":"NGBE","code":"2.1.9","id":7978},{"name":"Garzón","lat":43.375121,"lng":-3.609188,"mun":"SOLÓRZANO","src":"NGBE","code":"2.1.9","id":7994},{"name":"Gerra","lat":43.385925,"lng":-4.339905,"mun":"SAN VICENTE DE LA BARQUERA","src":"NGBE","code":"2.1.4","id":13501},{"name":"Gismana","lat":43.260925,"lng":-4.259888,"mun":"RUENTE","src":"NGBE","code":"2.1.6","id":2165},{"name":"Golbardo","lat":43.341583,"lng":-4.156221,"mun":"REOCÍN","src":"NGBE","code":"2.1.4","id":13503},{"name":"Gornazo","lat":43.412692,"lng":-3.985628,"mun":"MIENGO","src":"NGBE","code":"2.1.4","id":13504},{"name":"Guardamino","lat":43.261291,"lng":-3.444273,"mun":"RAMALES DE LA VICTORIA","src":"NGBE","code":"2.1.6","id":2182},{"name":"Guarnizo","lat":43.395278,"lng":-3.854815,"mun":"ASTILLERO (EL)","src":"NGBE","code":"2.1.4","id":13506},{"name":"Güemes","lat":43.455503,"lng":-3.63598,"mun":"BAREYO","src":"NGBE","code":"2.1.4","id":13507},{"name":"Guzparras","lat":43.184875,"lng":-3.85968,"mun":"VEGA DE PAS","src":"NGBE","code":"2.1.9","id":8027},{"name":"Hazas","lat":43.394862,"lng":-3.378177,"mun":"LIENDO","src":"NGBE","code":"2.1.9","id":2186},{"name":"Hazas","lat":43.192688,"lng":-3.553587,"mun":"SOBA","src":"NGBE","code":"2.1.4","id":13509},{"name":"Hazas","lat":43.394862,"lng":-3.378177,"mun":"LIENDO","src":"NGBE","code":"2.1.3","id":14159},{"name":"Hazas de Cesto","lat":43.396117,"lng":-3.590023,"mun":"HAZAS DE CESTO","src":"NGBE","code":"2.1.4","id":13510},{"name":"Helguera","lat":43.156671,"lng":-4.036195,"mun":"MOLLEDO","src":"NGBE","code":"2.1.9","id":8044},{"name":"Helguera","lat":43.295288,"lng":-3.428404,"mun":"RASINES","src":"NGBE","code":"2.1.9","id":8045},{"name":"Helguera","lat":43.156671,"lng":-4.036195,"mun":"MOLLEDO","src":"NGBE","code":"2.1.4","id":13511},{"name":"Helguera","lat":43.348241,"lng":-4.099225,"mun":"REOCÍN","src":"NGBE","code":"2.1.4","id":13512},{"name":"Helgueras","lat":43.350098,"lng":-4.505189,"mun":"VAL DE SAN VICENTE","src":"NGBE","code":"2.1.9","id":8046},{"name":"Helguero","lat":43.256897,"lng":-3.491575,"mun":"RAMALES DE LA VICTORIA","src":"NGBE","code":"2.1.6","id":2191},{"name":"Herada","lat":43.192504,"lng":-3.451109,"mun":"SOBA","src":"NGBE","code":"2.1.4","id":13514},{"name":"Heras","lat":43.396482,"lng":-3.765073,"mun":"MEDIO CUDEYO","src":"NGBE","code":"2.1.4","id":13515},{"name":"Hermosa","lat":43.36328,"lng":-3.731809,"mun":"MEDIO CUDEYO","src":"NGBE","code":"2.1.4","id":13516},{"name":"Herrán","lat":43.381714,"lng":-4.11029,"mun":"SANTILLANA DEL MAR","src":"NGBE","code":"2.1.9","id":8050},{"name":"Herrera","lat":43.424315,"lng":-3.863587,"mun":"CAMARGO","src":"NGBE","code":"2.1.4","id":13517},{"name":"Herrera de Ibio","lat":43.299927,"lng":-4.179321,"mun":"MAZCUERRAS","src":"NGBE","code":"2.1.9","id":8051},{"name":"Hijas","lat":43.276422,"lng":-3.980824,"mun":"PUENTE VIESGO","src":"NGBE","code":"2.1.4","id":13518},{"name":"Hijedo","lat":42.822584,"lng":-4.015053,"mun":"Varios o fuera de Cantabria","src":"Autonómico","code":"2.1.6","id":316336},{"name":"Hinojedo","lat":43.396728,"lng":-4.049317,"mun":"SUANCES","src":"NGBE","code":"2.1.4","id":13519},{"name":"Hormiguera","lat":42.874512,"lng":-4.130798,"mun":"VALDEPRADO DEL RÍO","src":"NGBE","code":"2.1.4","id":13520},{"name":"Horna de Ebro","lat":42.979309,"lng":-4.092712,"mun":"CAMPOO DE ENMEDIO","src":"NGBE","code":"2.1.4","id":13521},{"name":"Hornedillo","lat":43.152652,"lng":-3.827523,"mun":"SAN PEDRO DEL ROMERAL","src":"NGBE","code":"2.1.9","id":2202},{"name":"Hornedo","lat":43.364501,"lng":-3.625424,"mun":"ENTRAMBASAGUAS","src":"NGBE","code":"2.1.9","id":8097},{"name":"Hortigal","lat":43.358521,"lng":-4.424011,"mun":"SAN VICENTE DE LA BARQUERA","src":"NGBE","code":"2.1.4","id":13522},{"name":"Hoyos","lat":42.940125,"lng":-4.149475,"mun":"VALDEOLEA","src":"NGBE","code":"2.1.4","id":13523},{"name":"Hoz de Abiada","lat":43.018677,"lng":-4.28192,"mun":"HERMANDAD DE CAMPOO DE SUSO","src":"NGBE","code":"2.1.6","id":2225},{"name":"Hoz de Abiada","lat":43.018677,"lng":-4.28192,"mun":"HERMANDAD DE CAMPOO DE SUSO","src":"NGBE","code":"2.1.4","id":13545},{"name":"Hoz de Anero","lat":43.406923,"lng":-3.663373,"mun":"RIBAMONTÁN AL MONTE","src":"NGBE","code":"2.1.4","id":13524},{"name":"Hoz de Anero","lat":43.406923,"lng":-3.663373,"mun":"RIBAMONTÁN AL MONTE","src":"NGBE","code":"2.1.3","id":14177},{"name":"Hoz de Marrón","lat":43.341125,"lng":-3.441282,"mun":"AMPUERO","src":"NGBE","code":"2.1.4","id":13526},{"name":"Hoznayo","lat":43.389525,"lng":-3.700375,"mun":"ENTRAMBASAGUAS","src":"NGBE","code":"2.1.9","id":8177},{"name":"Hualle","lat":43.315949,"lng":-4.294526,"mun":"VALDÁLIGA","src":"NGBE","code":"2.1.6","id":187},{"name":"Ibio","lat":43.3125,"lng":-4.177002,"mun":"MAZCUERRAS","src":"NGBE","code":"2.1.4","id":13527},{"name":"Igollo","lat":43.43273,"lng":-3.883553,"mun":"CAMARGO","src":"NGBE","code":"2.1.4","id":13528},{"name":"Incedo","lat":43.214477,"lng":-3.479001,"mun":"SOBA","src":"NGBE","code":"2.1.4","id":13529},{"name":"Irías","lat":43.279296,"lng":-3.710509,"mun":"MIERA","src":"NGBE","code":"2.1.9","id":491},{"name":"Iruz","lat":43.267883,"lng":-3.93512,"mun":"SANTIURDE DE TORANZO","src":"NGBE","code":"2.1.4","id":13530},{"name":"Iseca Nueva","lat":43.383301,"lng":-3.370115,"mun":"LIENDO","src":"NGBE","code":"2.1.9","id":2280},{"name":"Iseca Vieja","lat":43.40271,"lng":-3.371701,"mun":"LIENDO","src":"NGBE","code":"2.1.9","id":8274},{"name":"Isequilla","lat":43.4021,"lng":-3.361203,"mun":"LIENDO","src":"NGBE","code":"2.1.9","id":8276},{"name":"Isla","lat":43.493712,"lng":-3.568596,"mun":"ARNUERO","src":"NGBE","code":"2.1.4","id":13531},{"name":"Isla Playa","lat":43.496886,"lng":-3.541801,"mun":"ARNUERO","src":"NGBE","code":"2.1.9","id":8285},{"name":"Islares","lat":43.404297,"lng":-3.299985,"mun":"CASTRO-URDIALES","src":"NGBE","code":"2.1.4","id":13532},{"name":"Izara","lat":42.977295,"lng":-4.188781,"mun":"HERMANDAD DE CAMPOO DE SUSO","src":"NGBE","code":"2.1.4","id":13533},{"name":"Jaín","lat":43.269714,"lng":-4.050476,"mun":"SAN FELICES DE BUELNA","src":"NGBE","code":"2.1.9","id":8296},{"name":"La Abadilla","lat":43.314879,"lng":-3.855286,"mun":"SANTA MARÍA DE CAYÓN","src":"NGBE","code":"2.1.4","id":13535},{"name":"La Acebosa","lat":43.366272,"lng":-4.409485,"mun":"SAN VICENTE DE LA BARQUERA","src":"NGBE","code":"2.1.4","id":13537},{"name":"La Aguilera","lat":42.964111,"lng":-4.046509,"mun":"ROZAS DE VALDEARROYO (LAS)","src":"NGBE","code":"2.1.4","id":13538},{"name":"La Altura","lat":43.226074,"lng":-3.271914,"mun":"VALLE DE VILLAVERDE","src":"NGBE","code":"2.1.9","id":8374},{"name":"La Aparecida","lat":43.326294,"lng":-3.452391,"mun":"AMPUERO","src":"NGBE","code":"2.1.9","id":8376},{"name":"La Arenosa","lat":43.4057,"lng":-3.416378,"mun":"LAREDO","src":"NGBE","code":"2.1.9","id":2308},{"name":"La Bárcena","lat":43.342712,"lng":-3.406615,"mun":"AMPUERO","src":"NGBE","code":"2.1.9","id":2312},{"name":"La Bárcena","lat":43.285632,"lng":-4.041631,"mun":"SAN FELICES DE BUELNA","src":"NGBE","code":"2.1.9","id":2313},{"name":"La Barquera","lat":43.341682,"lng":-4.072353,"mun":"CARTES","src":"NGBE","code":"2.1.9","id":2316},{"name":"La Bodega","lat":43.411173,"lng":-3.506907,"mun":"BÁRCENA DE CICERO","src":"NGBE","code":"2.1.6","id":8432},{"name":"La Busta","lat":43.348936,"lng":-4.177109,"mun":"ALFOZ DE LLOREDO","src":"NGBE","code":"2.1.4","id":13539},{"name":"La Cabañía","lat":42.997131,"lng":-4.268498,"mun":"HERMANDAD DE CAMPOO DE SUSO","src":"Autonómico","code":"2.1.6","id":316339},{"name":"La Cantera","lat":43.352112,"lng":-4.360596,"mun":"VALDÁLIGA","src":"NGBE","code":"2.1.6","id":8537},{"name":"La Cantolla","lat":43.294921,"lng":-3.707701,"mun":"MIERA","src":"NGBE","code":"2.1.9","id":8541},{"name":"La Capitana","lat":43.25592,"lng":-3.264223,"mun":"VALLE DE VILLAVERDE","src":"NGBE","code":"2.1.9","id":2348},{"name":"La Cárcoba","lat":43.275585,"lng":-3.712217,"mun":"MIERA","src":"NGBE","code":"2.1.9","id":2350},{"name":"La Cárcoba","lat":43.275585,"lng":-3.712217,"mun":"MIERA","src":"NGBE","code":"2.1.3","id":14191},{"name":"La Casuca","lat":43.364169,"lng":-3.408461,"mun":"LIMPIAS","src":"Autonómico","code":"2.1.6","id":39636},{"name":"La Cavada","lat":43.346966,"lng":-3.700383,"mun":"RIOTUERTO","src":"NGBE","code":"2.1.9","id":2360},{"name":"La Cavada","lat":43.346966,"lng":-3.700383,"mun":"RIOTUERTO","src":"NGBE","code":"2.1.3","id":14193},{"name":"La Cocina","lat":43.318837,"lng":-4.352207,"mun":"VALDÁLIGA","src":"NGBE","code":"2.1.6","id":8607},{"name":"La Collada","lat":43.340365,"lng":-3.628019,"mun":"Varios o fuera de Cantabria","src":"NGBE","code":"2.1.9","id":2372},{"name":"La Concha","lat":43.208162,"lng":-3.702428,"mun":"SAN ROQUE DE RIOMIERA","src":"NGBE","code":"2.1.6","id":2373},{"name":"La Concha","lat":43.208162,"lng":-3.702428,"mun":"SAN ROQUE DE RIOMIERA","src":"NGBE","code":"2.1.9","id":2376},{"name":"La Concha","lat":43.309082,"lng":-4.357727,"mun":"VALDÁLIGA","src":"NGBE","code":"2.1.6","id":8620},{"name":"La Concha","lat":43.373106,"lng":-3.851196,"mun":"VILLAESCUSA","src":"NGBE","code":"2.1.4","id":13540},{"name":"La Concha","lat":43.373106,"lng":-3.851196,"mun":"VILLAESCUSA","src":"NGBE","code":"2.1.3","id":14195},{"name":"La Corra","lat":43.349914,"lng":-3.334106,"mun":"GURIEZO","src":"NGBE","code":"2.1.9","id":2378},{"name":"La Costana","lat":43.016663,"lng":-4.00418,"mun":"CAMPOO DE YUSO","src":"NGBE","code":"2.1.4","id":13542},{"name":"La Costana","lat":43.016663,"lng":-4.00418,"mun":"CAMPOO DE YUSO","src":"NGBE","code":"2.1.3","id":14196},{"name":"La Costera","lat":43.343547,"lng":-3.745758,"mun":"LIÉRGANES","src":"NGBE","code":"2.1.6","id":2380},{"name":"La Cotera","lat":43.273316,"lng":-4.419983,"mun":"RIONANSA","src":"NGBE","code":"2.1.9","id":8680},{"name":"La Cuesta","lat":43.412026,"lng":-3.520368,"mun":"BÁRCENA DE CICERO","src":"NGBE","code":"2.1.6","id":2402},{"name":"La Cuesta","lat":43.262595,"lng":-4.250496,"mun":"RUENTE","src":"NGBE","code":"2.1.6","id":2403},{"name":"La Cueva","lat":43.315306,"lng":-3.902893,"mun":"CASTAÑEDA","src":"NGBE","code":"2.1.9","id":8758},{"name":"La Edilla","lat":43.312316,"lng":-3.404601,"mun":"RASINES","src":"NGBE","code":"2.1.9","id":8781},{"name":"La Encina","lat":43.319518,"lng":-3.865784,"mun":"SANTA MARÍA DE CAYÓN","src":"NGBE","code":"2.1.4","id":13544},{"name":"La Ermita","lat":43.411565,"lng":-3.488023,"mun":"BÁRCENA DE CICERO","src":"NGBE","code":"2.1.6","id":2421},{"name":"La Escallada","lat":43.415398,"lng":-3.549418,"mun":"BÁRCENA DE CICERO","src":"NGBE","code":"2.1.6","id":2422},{"name":"La Estación","lat":43.282104,"lng":-3.438902,"mun":"RAMALES DE LA VICTORIA","src":"NGBE","code":"2.1.6","id":8813},{"name":"La Fragua","lat":43.411091,"lng":-3.493625,"mun":"BÁRCENA DE CICERO","src":"NGBE","code":"2.1.6","id":8829},{"name":"La Frecha","lat":43.151738,"lng":-4.676214,"mun":"CAMALEÑO","src":"NGBE","code":"2.1.9","id":8832},{"name":"La Ganceda","lat":43.313385,"lng":-4.35902,"mun":"VALDÁLIGA","src":"NGBE","code":"2.1.6","id":2432},{"name":"La Gándara","lat":43.195312,"lng":-3.565978,"mun":"SOBA","src":"NGBE","code":"2.1.6","id":8855},{"name":"La Garma","lat":43.151672,"lng":-3.897827,"mun":"LUENA","src":"NGBE","code":"2.1.9","id":2437},{"name":"La Gurueba","lat":43.169495,"lng":-3.839722,"mun":"VEGA DE PAS","src":"NGBE","code":"2.1.9","id":8896},{"name":"La Hayuela","lat":43.336121,"lng":-4.267395,"mun":"UDÍAS","src":"NGBE","code":"2.1.9","id":8901},{"name":"La Hermida","lat":43.254883,"lng":-4.615113,"mun":"PEÑARRUBIA","src":"NGBE","code":"2.1.9","id":8913},{"name":"La Herrán","lat":43.356518,"lng":-3.784242,"mun":"LIÉRGANES","src":"NGBE","code":"2.1.6","id":2455},{"name":"La Herrería","lat":43.282898,"lng":-4.439881,"mun":"RIONANSA","src":"NGBE","code":"2.1.9","id":2459},{"name":"La Herrería","lat":43.309509,"lng":-4.293518,"mun":"VALDÁLIGA","src":"NGBE","code":"2.1.6","id":8919},{"name":"La Hoya","lat":43.357117,"lng":-4.361878,"mun":"VALDÁLIGA","src":"NGBE","code":"2.1.6","id":8943},{"name":"La Iglesia","lat":43.417113,"lng":-3.549312,"mun":"BÁRCENA DE CICERO","src":"NGBE","code":"2.1.6","id":2474},{"name":"La Iglesia","lat":43.280273,"lng":-3.652708,"mun":"ARREDONDO","src":"NGBE","code":"2.1.9","id":2475},{"name":"La Iglesia","lat":43.420897,"lng":-3.516414,"mun":"BÁRCENA DE CICERO","src":"NGBE","code":"2.1.6","id":2476},{"name":"La Iglesia","lat":43.256445,"lng":-3.263243,"mun":"VALLE DE VILLAVERDE","src":"NGBE","code":"2.1.9","id":8955},{"name":"La Laguna","lat":43.114753,"lng":-4.406945,"mun":"POLACIONES","src":"NGBE","code":"2.1.9","id":8985},{"name":"La Lastra","lat":43.150513,"lng":-4.380981,"mun":"TUDANCA","src":"NGBE","code":"2.1.4","id":13546},{"name":"La Loma","lat":42.93759,"lng":-4.204552,"mun":"VALDEOLEA","src":"NGBE","code":"2.1.4","id":13547},{"name":"La Lomba","lat":43.010681,"lng":-4.28601,"mun":"HERMANDAD DE CAMPOO DE SUSO","src":"NGBE","code":"2.1.9","id":9063},{"name":"La Magdalena","lat":43.353698,"lng":-3.33551,"mun":"GURIEZO","src":"NGBE","code":"2.1.9","id":9074},{"name":"La Mata","lat":43.329407,"lng":-4.371145,"mun":"VALDÁLIGA","src":"NGBE","code":"2.1.6","id":9101},{"name":"La Matanza","lat":43.244793,"lng":-3.261246,"mun":"VALLE DE VILLAVERDE","src":"NGBE","code":"2.1.9","id":2517},{"name":"La Matanza","lat":43.244793,"lng":-3.261246,"mun":"VALLE DE VILLAVERDE","src":"NGBE","code":"2.1.3","id":14201},{"name":"La Maza","lat":43.394897,"lng":-3.477291,"mun":"BÁRCENA DE CICERO","src":"NGBE","code":"2.1.6","id":2521},{"name":"La Miña","lat":43.015696,"lng":-4.163842,"mun":"HERMANDAD DE CAMPOO DE SUSO","src":"NGBE","code":"2.1.4","id":13549},{"name":"La Molina","lat":43.319885,"lng":-4.312195,"mun":"VALDÁLIGA","src":"NGBE","code":"2.1.6","id":9164},{"name":"La Molina","lat":43.156128,"lng":-4.636475,"mun":"CAMALEÑO","src":"NGBE","code":"2.1.9","id":9165},{"name":"La Montaña","lat":43.32373,"lng":-4.016297,"mun":"TORRELAVEGA","src":"NGBE","code":"2.1.9","id":9167},{"name":"La Parada","lat":43.167959,"lng":-3.899552,"mun":"LUENA","src":"NGBE","code":"2.1.9","id":2547},{"name":"La Pared","lat":43.238709,"lng":-3.449294,"mun":"RAMALES DE LA VICTORIA","src":"NGBE","code":"2.1.6","id":2548},{"name":"La Pedrosa","lat":43.231884,"lng":-3.703089,"mun":"SAN ROQUE DE RIOMIERA","src":"NGBE","code":"2.1.9","id":2558},{"name":"La Peña","lat":43.392272,"lng":-3.468808,"mun":"BÁRCENA DE CICERO","src":"NGBE","code":"2.1.6","id":2567},{"name":"La Peñía","lat":43.348196,"lng":-4.351624,"mun":"VALDÁLIGA","src":"NGBE","code":"2.1.6","id":2569},{"name":"La Penilla","lat":43.319518,"lng":-3.882507,"mun":"SANTA MARÍA DE CAYÓN","src":"NGBE","code":"2.1.4","id":13550},{"name":"La Peredilla","lat":43.120993,"lng":-3.828888,"mun":"SAN PEDRO DEL ROMERAL","src":"NGBE","code":"2.1.9","id":2573},{"name":"La Pesquera","lat":43.403023,"lng":-3.429662,"mun":"LAREDO","src":"NGBE","code":"2.1.9","id":2576},{"name":"La Plaza","lat":43.317629,"lng":-4.313137,"mun":"VALDÁLIGA","src":"NGBE","code":"2.1.6","id":2581},{"name":"La Población","lat":43.030119,"lng":-3.945785,"mun":"CAMPOO DE YUSO","src":"NGBE","code":"2.1.4","id":13551},{"name":"La Población","lat":42.986655,"lng":-4.237587,"mun":"HERMANDAD DE CAMPOO DE SUSO","src":"NGBE","code":"2.1.4","id":13552},{"name":"La Portilla","lat":43.387329,"lng":-3.382688,"mun":"LIENDO","src":"NGBE","code":"2.1.9","id":9276},{"name":"La Prá","lat":43.030992,"lng":-4.324776,"mun":"HERMANDAD DE CAMPOO DE SUSO","src":"Autonómico","code":"2.1.6","id":316341},{"name":"La Puente","lat":43.313353,"lng":-4.356741,"mun":"VALDÁLIGA","src":"NGBE","code":"2.1.6","id":2596},{"name":"La Puente","lat":43.098868,"lng":-3.899205,"mun":"LUENA","src":"NGBE","code":"2.1.9","id":9312},{"name":"La Puente del Valle","lat":42.795289,"lng":-3.984499,"mun":"VALDERREDIBLE","src":"NGBE","code":"2.1.4","id":13553},{"name":"La Quieva","lat":43.31741,"lng":-3.752898,"mun":"LIÉRGANES","src":"NGBE","code":"2.1.6","id":2597},{"name":"La Quieva","lat":43.310571,"lng":-3.755106,"mun":"LIÉRGANES","src":"NGBE","code":"2.1.6","id":9323},{"name":"La Quintana","lat":43.27948,"lng":-3.437332,"mun":"RAMALES DE LA VICTORIA","src":"NGBE","code":"2.1.6","id":2602},{"name":"La Quintana","lat":42.882396,"lng":-4.208844,"mun":"VALDEOLEA","src":"NGBE","code":"2.1.6","id":3428},{"name":"La Quintana","lat":43.243076,"lng":-4.637021,"mun":"CILLORIGO DE LIÉBANA","src":"NGBE","code":"2.1.6","id":9330},{"name":"La Quintana","lat":42.882401,"lng":-4.208849,"mun":"VALDEOLEA","src":"NGBE","code":"2.1.9","id":9333},{"name":"La Quintana","lat":43.27948,"lng":-3.437332,"mun":"RAMALES DE LA VICTORIA","src":"NGBE","code":"2.1.4","id":13554},{"name":"La Rabia","lat":43.379077,"lng":-4.314189,"mun":"COMILLAS","src":"NGBE","code":"2.1.9","id":9335},{"name":"La Rañada","lat":43.337889,"lng":-3.744383,"mun":"LIÉRGANES","src":"NGBE","code":"2.1.6","id":2603},{"name":"La Revilla","lat":43.378906,"lng":-4.362976,"mun":"SAN VICENTE DE LA BARQUERA","src":"NGBE","code":"2.1.4","id":13555},{"name":"La Revilla","lat":43.201285,"lng":-3.488866,"mun":"SOBA","src":"NGBE","code":"2.1.4","id":13556},{"name":"La Revilla","lat":42.929779,"lng":-4.18817,"mun":"VALDEOLEA","src":"Autonómico","code":"2.1.6","id":289307},{"name":"La Ría","lat":43.292908,"lng":-4.30719,"mun":"VALDÁLIGA","src":"NGBE","code":"2.1.6","id":2617},{"name":"La Ría","lat":43.381104,"lng":-4.318298,"mun":"VALDÁLIGA","src":"NGBE","code":"2.1.6","id":2618},{"name":"La Riva","lat":43.01593,"lng":-3.965821,"mun":"CAMPOO DE YUSO","src":"NGBE","code":"2.1.4","id":13557},{"name":"La Roza","lat":43.277099,"lng":-3.632627,"mun":"ARREDONDO","src":"NGBE","code":"2.1.9","id":2625},{"name":"La Serna","lat":43.172119,"lng":-4.044006,"mun":"ARENAS DE IGUÑA","src":"NGBE","code":"2.1.4","id":13558},{"name":"La Serna","lat":42.880677,"lng":-3.949098,"mun":"VALDERREDIBLE","src":"NGBE","code":"2.1.4","id":13829},{"name":"La Sierra","lat":43.317078,"lng":-4.300293,"mun":"VALDÁLIGA","src":"NGBE","code":"2.1.6","id":2634},{"name":"La Sierra","lat":43.388122,"lng":-3.474789,"mun":"BÁRCENA DE CICERO","src":"NGBE","code":"2.1.6","id":2635},{"name":"La Sorrozuela","lat":43.507322,"lng":-3.582511,"mun":"BAREYO","src":"NGBE","code":"2.1.6","id":9496},{"name":"La Sota","lat":43.121137,"lng":-3.847106,"mun":"SAN PEDRO DEL ROMERAL","src":"NGBE","code":"2.1.9","id":2640},{"name":"La Tejera","lat":43.391478,"lng":-3.561275,"mun":"BÁRCENA DE CICERO","src":"NGBE","code":"2.1.6","id":9557},{"name":"La Toba","lat":43.260314,"lng":-3.719603,"mun":"MIERA","src":"NGBE","code":"2.1.9","id":2655},{"name":"La Vega","lat":43.334471,"lng":-3.744322,"mun":"LIÉRGANES","src":"NGBE","code":"2.1.6","id":2675},{"name":"La Vega","lat":43.312651,"lng":-3.601406,"mun":"RUESGA","src":"NGBE","code":"2.1.6","id":9618},{"name":"La Vega","lat":43.303894,"lng":-3.401977,"mun":"RASINES","src":"NGBE","code":"2.1.9","id":9628},{"name":"La Vega","lat":43.29547,"lng":-3.700682,"mun":"MIERA","src":"NGBE","code":"2.1.9","id":9629},{"name":"La Vega","lat":43.314381,"lng":-4.355652,"mun":"VALDÁLIGA","src":"NGBE","code":"2.1.6","id":9630},{"name":"La Vega","lat":43.099505,"lng":-4.647237,"mun":"VEGA DE LIÉBANA","src":"NGBE","code":"2.1.4","id":13559},{"name":"La Vega","lat":43.099505,"lng":-4.647237,"mun":"VEGA DE LIÉBANA","src":"NGBE","code":"2.1.3","id":14210},{"name":"La Vega de Liébana","lat":43.099505,"lng":-4.647237,"mun":"VEGA DE LIÉBANA","src":"Histórico","code":"2.1.9","id":322680},{"name":"La Veguilla","lat":43.245524,"lng":-3.607069,"mun":"ARREDONDO","src":"NGBE","code":"2.1.6","id":2677},{"name":"La Veguilla","lat":43.359065,"lng":-4.100024,"mun":"REOCÍN","src":"NGBE","code":"2.1.4","id":13561},{"name":"La Venta","lat":43.354736,"lng":-4.354106,"mun":"VALDÁLIGA","src":"NGBE","code":"2.1.6","id":9648},{"name":"La Venta Fresnedo","lat":43.278504,"lng":-4.484009,"mun":"Varios o fuera de Cantabria","src":"NGBE","code":"2.1.9","id":2684},{"name":"La Venta Fresnedo","lat":43.278504,"lng":-4.484009,"mun":"Varios o fuera de Cantabria","src":"NGBE","code":"2.1.6","id":13147},{"name":"La Ventona","lat":43.145691,"lng":-3.899292,"mun":"LUENA","src":"NGBE","code":"2.1.9","id":9653},{"name":"La Vía","lat":43.414489,"lng":-3.482906,"mun":"BÁRCENA DE CICERO","src":"NGBE","code":"2.1.6","id":9659},{"name":"La Virgen","lat":43.329712,"lng":-4.247986,"mun":"UDÍAS","src":"NGBE","code":"2.1.9","id":9668},{"name":"Labarces","lat":43.325684,"lng":-4.393189,"mun":"VALDÁLIGA","src":"NGBE","code":"2.1.4","id":13562},{"name":"Lafuente","lat":43.254273,"lng":-4.51001,"mun":"LAMASÓN","src":"NGBE","code":"2.1.9","id":9697},{"name":"Laguillos","lat":42.923204,"lng":-4.014201,"mun":"VALDEPRADO DEL RÍO","src":"NGBE","code":"2.1.9","id":4110},{"name":"Laiseca","lat":43.237304,"lng":-3.268496,"mun":"VALLE DE VILLAVERDE","src":"NGBE","code":"2.1.9","id":9710},{"name":"Lamadrid","lat":43.415006,"lng":-3.526657,"mun":"BÁRCENA DE CICERO","src":"NGBE","code":"2.1.6","id":9711},{"name":"Lamadrid","lat":43.354675,"lng":-4.364014,"mun":"VALDÁLIGA","src":"NGBE","code":"2.1.4","id":13563},{"name":"Lamedo","lat":43.108887,"lng":-4.495789,"mun":"CABEZÓN DE LIÉBANA","src":"NGBE","code":"2.1.4","id":13564},{"name":"Lamiña","lat":43.23352,"lng":-4.281677,"mun":"RUENTE","src":"NGBE","code":"2.1.9","id":9714},{"name":"Lanchares","lat":43.040528,"lng":-3.971619,"mun":"CAMPOO DE YUSO","src":"NGBE","code":"2.1.4","id":13565},{"name":"Landeral","lat":43.335326,"lng":-3.331909,"mun":"GURIEZO","src":"NGBE","code":"2.1.9","id":9717},{"name":"Lanestosa","lat":43.217952,"lng":-3.440003,"mun":"Varios o fuera de Cantabria","src":"Autonómico","code":"2.1.4","id":118649},{"name":"Langre","lat":43.472898,"lng":-3.702693,"mun":"RIBAMONTÁN AL MAR","src":"NGBE","code":"2.1.4","id":13566},{"name":"Lantueno","lat":43.049927,"lng":-4.082214,"mun":"SANTIURDE DE REINOSA","src":"NGBE","code":"2.1.4","id":13567},{"name":"Laredo","lat":43.409846,"lng":-3.41434,"mun":"LAREDO","src":"NGBE","code":"2.1.9","id":2698},{"name":"Laredo","lat":43.409846,"lng":-3.41434,"mun":"LAREDO","src":"NGBE","code":"2.1.3","id":14220},{"name":"Larteme","lat":43.365655,"lng":-4.331334,"mun":"VALDÁLIGA","src":"NGBE","code":"2.1.6","id":9726},{"name":"Las Arenas","lat":43.351985,"lng":-4.364717,"mun":"VALDÁLIGA","src":"NGBE","code":"2.1.6","id":2701},{"name":"Las Bárcenas","lat":43.278687,"lng":-4.427308,"mun":"RIONANSA","src":"NGBE","code":"2.1.9","id":2704},{"name":"Las Caldas de Besaya","lat":43.298279,"lng":-4.072998,"mun":"SAN FELICES DE BUELNA","src":"NGBE","code":"2.1.6","id":956},{"name":"Las Caldas del Besaya","lat":43.298523,"lng":-4.074707,"mun":"CORRALES DE BUELNA (LOS)","src":"NGBE","code":"2.1.9","id":4112},{"name":"Las Calgueras","lat":43.094648,"lng":-4.115464,"mun":"SANTIURDE DE REINOSA","src":"Autonómico","code":"2.1.6","id":316333},{"name":"Las Cárcobas","lat":43.406676,"lng":-3.401834,"mun":"LAREDO","src":"NGBE","code":"2.1.9","id":2713},{"name":"Las Casas Nuevas","lat":43.285018,"lng":-4.298578,"mun":"VALDÁLIGA","src":"NGBE","code":"2.1.6","id":2715},{"name":"Las Casillas","lat":43.404297,"lng":-3.4212,"mun":"LAREDO","src":"NGBE","code":"2.1.9","id":9802},{"name":"Las Entradas","lat":43.343269,"lng":-3.38279,"mun":"AMPUERO","src":"NGBE","code":"2.1.9","id":473},{"name":"Las Fraguas","lat":43.195312,"lng":-4.054626,"mun":"ARENAS DE IGUÑA","src":"NGBE","code":"2.1.4","id":13568},{"name":"Las Garmillas","lat":43.321907,"lng":-3.37611,"mun":"AMPUERO","src":"NGBE","code":"2.1.9","id":2731},{"name":"Las Henestrosas de las Quintanillas","lat":42.875489,"lng":-4.205505,"mun":"VALDEOLEA","src":"NGBE","code":"2.1.4","id":13569},{"name":"Las Ilces","lat":43.114929,"lng":-4.768798,"mun":"CAMALEÑO","src":"NGBE","code":"2.1.9","id":9907},{"name":"Las Pilas","lat":43.423704,"lng":-3.639888,"mun":"RIBAMONTÁN AL MONTE","src":"NGBE","code":"2.1.4","id":13570},{"name":"Las Porquerizas","lat":43.312525,"lng":-3.76847,"mun":"LIÉRGANES","src":"NGBE","code":"2.1.6","id":2749},{"name":"Las Presillas","lat":43.325683,"lng":-3.980408,"mun":"PUENTE VIESGO","src":"NGBE","code":"2.1.4","id":13571},{"name":"Las Quintanillas","lat":42.891109,"lng":-4.204831,"mun":"VALDEOLEA","src":"NGBE","code":"2.1.4","id":13572},{"name":"Las Rozas de Valdearroyo","lat":42.973186,"lng":-4.029292,"mun":"ROZAS DE VALDEARROYO (LAS)","src":"NGBE","code":"2.1.4","id":13573},{"name":"Las Rozas de Valdearroyo","lat":42.973186,"lng":-4.029292,"mun":"ROZAS DE VALDEARROYO (LAS)","src":"NGBE","code":"2.1.3","id":14226},{"name":"Lavín","lat":43.185485,"lng":-3.55902,"mun":"SOBA","src":"NGBE","code":"2.1.4","id":13575},{"name":"Lebeña","lat":43.214905,"lng":-4.585816,"mun":"CILLORIGO DE LIÉBANA","src":"NGBE","code":"2.1.4","id":13576},{"name":"Ledantes","lat":43.070129,"lng":-4.691711,"mun":"VEGA DE LIÉBANA","src":"NGBE","code":"2.1.4","id":13577},{"name":"Lendagua","lat":43.367126,"lng":-3.324706,"mun":"GURIEZO","src":"NGBE","code":"2.1.9","id":10112},{"name":"Lerones","lat":43.096924,"lng":-4.560425,"mun":"PESAGUERO","src":"NGBE","code":"2.1.4","id":13578},{"name":"Liandres","lat":43.390503,"lng":-4.251404,"mun":"RUILOBA","src":"NGBE","code":"2.1.9","id":10116},{"name":"Liaño","lat":43.379881,"lng":-3.841797,"mun":"VILLAESCUSA","src":"NGBE","code":"2.1.4","id":13579},{"name":"Liencres","lat":43.460693,"lng":-3.927186,"mun":"PIÉLAGOS","src":"NGBE","code":"2.1.4","id":13580},{"name":"Liérganes","lat":43.344973,"lng":-3.745706,"mun":"LIÉRGANES","src":"NGBE","code":"2.1.9","id":2766},{"name":"Liérganes","lat":43.344973,"lng":-3.745706,"mun":"LIÉRGANES","src":"NGBE","code":"2.1.3","id":14236},{"name":"Liermo","lat":43.433286,"lng":-3.645503,"mun":"RIBAMONTÁN AL MONTE","src":"NGBE","code":"2.1.4","id":13581},{"name":"Limpias","lat":43.361389,"lng":-3.426895,"mun":"LIMPIAS","src":"NGBE","code":"2.1.9","id":2767},{"name":"Limpias","lat":43.361389,"lng":-3.426895,"mun":"LIMPIAS","src":"NGBE","code":"2.1.3","id":14239},{"name":"Linares","lat":43.253156,"lng":-4.584666,"mun":"PEÑARRUBIA","src":"NGBE","code":"2.1.9","id":2768},{"name":"Linares","lat":43.253156,"lng":-4.584666,"mun":"PEÑARRUBIA","src":"NGBE","code":"2.1.3","id":14240},{"name":"Linto","lat":43.272094,"lng":-3.70471,"mun":"MIERA","src":"NGBE","code":"2.1.9","id":10137},{"name":"Llaguno","lat":43.301879,"lng":-3.265382,"mun":"GURIEZO","src":"NGBE","code":"2.1.9","id":2772},{"name":"Llánez","lat":43.367126,"lng":-3.512875,"mun":"VOTO","src":"NGBE","code":"2.1.4","id":13582},{"name":"Llano","lat":43.105367,"lng":-3.895331,"mun":"LUENA","src":"NGBE","code":"2.1.9","id":2776},{"name":"Llano","lat":42.988282,"lng":-3.986878,"mun":"ROZAS DE VALDEARROYO (LAS)","src":"NGBE","code":"2.1.9","id":10179},{"name":"Llano","lat":43.275085,"lng":-4.055603,"mun":"SAN FELICES DE BUELNA","src":"NGBE","code":"2.1.4","id":13583},{"name":"Llanos","lat":43.324706,"lng":-3.798827,"mun":"PENAGOS","src":"NGBE","code":"2.1.9","id":10196},{"name":"Llatazos","lat":43.393038,"lng":-3.365687,"mun":"LIENDO","src":"NGBE","code":"2.1.9","id":2779},{"name":"Llaves","lat":43.135971,"lng":-4.730706,"mun":"CAMALEÑO","src":"NGBE","code":"2.1.9","id":10206},{"name":"Llayo","lat":43.168468,"lng":-4.587901,"mun":"CILLORIGO DE LIÉBANA","src":"NGBE","code":"2.1.9","id":10207},{"name":"Llerana","lat":43.261299,"lng":-3.808113,"mun":"SARO","src":"NGBE","code":"2.1.4","id":13584},{"name":"Lloreda","lat":43.294127,"lng":-3.819274,"mun":"SANTA MARÍA DE CAYÓN","src":"NGBE","code":"2.1.4","id":13585},{"name":"Lloredo","lat":43.353405,"lng":-4.162093,"mun":"ALFOZ DE LLOREDO","src":"NGBE","code":"2.1.6","id":10217},{"name":"Lobao","lat":43.253906,"lng":-4.082092,"mun":"CORRALES DE BUELNA (LOS)","src":"NGBE","code":"2.1.6","id":2783},{"name":"Loma Somera","lat":42.873108,"lng":-4.023621,"mun":"VALDERREDIBLE","src":"NGBE","code":"2.1.4","id":13586},{"name":"Lombera","lat":43.318481,"lng":-3.404601,"mun":"RASINES","src":"NGBE","code":"2.1.9","id":10257},{"name":"Lombraña","lat":43.100466,"lng":-4.414201,"mun":"POLACIONES","src":"NGBE","code":"2.1.9","id":2785},{"name":"Lombraña","lat":43.100466,"lng":-4.414201,"mun":"POLACIONES","src":"NGBE","code":"2.1.3","id":14248},{"name":"Lomeña","lat":43.087525,"lng":-4.567505,"mun":"PESAGUERO","src":"NGBE","code":"2.1.4","id":13587},{"name":"Lon","lat":43.167298,"lng":-4.682617,"mun":"CAMALEÑO","src":"NGBE","code":"2.1.4","id":13588},{"name":"Loredo","lat":43.461729,"lng":-3.718196,"mun":"RIBAMONTÁN AL MAR","src":"NGBE","code":"2.1.4","id":13589},{"name":"Los Carrascales","lat":43.03155,"lng":-4.304952,"mun":"HERMANDAD DE CAMPOO DE SUSO","src":"Autonómico","code":"2.1.6","id":316345},{"name":"Los Casarejos","lat":42.999803,"lng":-4.260762,"mun":"HERMANDAD DE CAMPOO DE SUSO","src":"Autonómico","code":"2.1.6","id":316342},{"name":"Los Corrales","lat":43.290073,"lng":-4.31124,"mun":"VALDÁLIGA","src":"NGBE","code":"2.1.6","id":2801},{"name":"Los Corrales de Buelna","lat":43.255591,"lng":-4.068402,"mun":"CORRALES DE BUELNA (LOS)","src":"NGBE","code":"2.1.9","id":2802},{"name":"Los Corrales de Buelna","lat":43.255591,"lng":-4.068402,"mun":"CORRALES DE BUELNA (LOS)","src":"NGBE","code":"2.1.3","id":14252},{"name":"Los Hoyos","lat":43.254699,"lng":-3.294008,"mun":"VALLE DE VILLAVERDE","src":"NGBE","code":"2.1.9","id":2810},{"name":"Los Llanos","lat":43.137915,"lng":-4.712625,"mun":"CAMALEÑO","src":"NGBE","code":"2.1.9","id":10455},{"name":"Los Llares","lat":43.184082,"lng":-4.104309,"mun":"ARENAS DE IGUÑA","src":"NGBE","code":"2.1.9","id":10459},{"name":"Los Pandos","lat":43.103721,"lng":-3.90898,"mun":"LUENA","src":"NGBE","code":"2.1.9","id":10499},{"name":"Los Picayos","lat":43.281678,"lng":-4.47168,"mun":"RIONANSA","src":"NGBE","code":"2.1.9","id":2830},{"name":"Los Prados","lat":43.349669,"lng":-3.729185,"mun":"LIÉRGANES","src":"NGBE","code":"2.1.6","id":2836},{"name":"Los Pumares","lat":43.254485,"lng":-4.516201,"mun":"LAMASÓN","src":"NGBE","code":"2.1.9","id":2837},{"name":"Los Pumares","lat":43.273388,"lng":-3.719402,"mun":"MIERA","src":"NGBE","code":"2.1.9","id":10540},{"name":"Los Tojos","lat":43.154114,"lng":-4.254211,"mun":"TOJOS (LOS)","src":"NGBE","code":"2.1.4","id":13591},{"name":"Los Valles","lat":43.251888,"lng":-3.480734,"mun":"RAMALES DE LA VICTORIA","src":"NGBE","code":"2.1.6","id":10591},{"name":"Losvia","lat":43.360264,"lng":-4.36798,"mun":"VALDÁLIGA","src":"NGBE","code":"2.1.6","id":4503},{"name":"Luey","lat":43.351075,"lng":-4.485413,"mun":"VAL DE SAN VICENTE","src":"NGBE","code":"2.1.4","id":13592},{"name":"Lugarejos","lat":43.365722,"lng":-3.340209,"mun":"GURIEZO","src":"NGBE","code":"2.1.9","id":10600},{"name":"Luriezo","lat":43.154297,"lng":-4.538697,"mun":"CABEZÓN DE LIÉBANA","src":"NGBE","code":"2.1.4","id":13593},{"name":"Lusa","lat":43.352722,"lng":-3.205504,"mun":"CASTRO-URDIALES","src":"NGBE","code":"2.1.4","id":13594},{"name":"Luzmela","lat":43.298543,"lng":-4.2092,"mun":"MAZCUERRAS","src":"NGBE","code":"2.1.4","id":13595},{"name":"Luzmela","lat":43.298543,"lng":-4.2092,"mun":"MAZCUERRAS","src":"NGBE","code":"2.1.3","id":14260},{"name":"Madama","lat":43.418203,"lng":-3.543043,"mun":"BÁRCENA DE CICERO","src":"NGBE","code":"2.1.6","id":10601},{"name":"Malataja","lat":42.927044,"lng":-4.000174,"mun":"VALDEPRADO DEL RÍO","src":"NGBE","code":"2.1.4","id":13662},{"name":"Maliaño","lat":43.418272,"lng":-3.840088,"mun":"CAMARGO","src":"NGBE","code":"2.1.4","id":13597},{"name":"Maliaño Alto","lat":43.417906,"lng":-3.829589,"mun":"CAMARGO","src":"NGBE","code":"2.1.6","id":2861},{"name":"Maliaño Bajo","lat":43.417906,"lng":-3.84729,"mun":"CAMARGO","src":"NGBE","code":"2.1.6","id":2863},{"name":"Maoño","lat":43.417907,"lng":-3.914979,"mun":"SANTA CRUZ DE BEZANA","src":"NGBE","code":"2.1.4","id":13598},{"name":"Mar","lat":43.400085,"lng":-4.008912,"mun":"POLANCO","src":"NGBE","code":"2.1.9","id":10641},{"name":"Maredes","lat":43.134125,"lng":-4.661421,"mun":"VEGA DE LIÉBANA","src":"NGBE","code":"2.1.6","id":2872},{"name":"Maredes","lat":43.134125,"lng":-4.661421,"mun":"VEGA DE LIÉBANA","src":"NGBE","code":"2.1.5","id":13273},{"name":"Marrón","lat":43.34851,"lng":-3.43469,"mun":"AMPUERO","src":"NGBE","code":"2.1.9","id":474},{"name":"Mata","lat":43.279165,"lng":-4.03056,"mun":"SAN FELICES DE BUELNA","src":"NGBE","code":"2.1.9","id":10658},{"name":"Mata de Hoz","lat":42.933472,"lng":-4.219482,"mun":"VALDEOLEA","src":"NGBE","code":"2.1.4","id":13599},{"name":"Matamorosa","lat":42.985541,"lng":-4.146609,"mun":"CAMPOO DE ENMEDIO","src":"NGBE","code":"2.1.4","id":13600},{"name":"Matamorosa","lat":42.985541,"lng":-4.146609,"mun":"CAMPOO DE ENMEDIO","src":"NGBE","code":"2.1.3","id":14267},{"name":"Mataporquera","lat":42.87484,"lng":-4.162154,"mun":"VALDEOLEA","src":"NGBE","code":"2.1.4","id":13602},{"name":"Mataporquera","lat":42.87484,"lng":-4.162154,"mun":"VALDEOLEA","src":"NGBE","code":"2.1.3","id":14268},{"name":"Matarrepudio","lat":42.895081,"lng":-4.147094,"mun":"VALDEOLEA","src":"NGBE","code":"2.1.4","id":13604},{"name":"Matienzo","lat":43.314697,"lng":-3.584592,"mun":"RUESGA","src":"NGBE","code":"2.1.4","id":13605},{"name":"Mazandrero","lat":43.003479,"lng":-4.271483,"mun":"HERMANDAD DE CAMPOO DE SUSO","src":"NGBE","code":"2.1.4","id":13606},{"name":"Mazuecas","lat":43.411315,"lng":-3.48669,"mun":"BÁRCENA DE CICERO","src":"NGBE","code":"2.1.6","id":2888},{"name":"Meca","lat":43.26831,"lng":-4.247375,"mun":"RUENTE","src":"NGBE","code":"2.1.6","id":2890},{"name":"Media Concha","lat":43.10327,"lng":-4.074492,"mun":"MOLLEDO","src":"NGBE","code":"2.1.6","id":10713},{"name":"Mediadoro","lat":42.907715,"lng":-4.007081,"mun":"VALDEPRADO DEL RÍO","src":"NGBE","code":"2.1.9","id":10715},{"name":"Mendina","lat":43.383911,"lng":-3.367002,"mun":"LIENDO","src":"NGBE","code":"2.1.9","id":2896},{"name":"Mercadal","lat":43.32373,"lng":-4.099976,"mun":"CARTES","src":"NGBE","code":"2.1.9","id":10725},{"name":"Merilla","lat":43.252929,"lng":-3.73059,"mun":"SAN ROQUE DE RIOMIERA","src":"NGBE","code":"2.1.9","id":2899},{"name":"Merodio","lat":43.319276,"lng":-4.540711,"mun":"Varios o fuera de Cantabria","src":"NGBE","code":"2.1.5","id":188313},{"name":"Miengo","lat":43.427248,"lng":-3.993,"mun":"MIENGO","src":"NGBE","code":"2.1.4","id":13607},{"name":"Miengo","lat":43.427248,"lng":-3.993,"mun":"MIENGO","src":"NGBE","code":"2.1.3","id":14280},{"name":"Mieses","lat":43.151917,"lng":-4.640076,"mun":"CAMALEÑO","src":"NGBE","code":"2.1.9","id":10795},{"name":"Mijares","lat":43.36853,"lng":-4.077698,"mun":"SANTILLANA DEL MAR","src":"NGBE","code":"2.1.4","id":13609},{"name":"Mijarojos","lat":43.338371,"lng":-4.080699,"mun":"Varios o fuera de Cantabria","src":"NGBE","code":"2.1.9","id":2907},{"name":"Mioño","lat":43.359924,"lng":-3.202391,"mun":"CASTRO-URDIALES","src":"NGBE","code":"2.1.4","id":13610},{"name":"Mirones","lat":43.295287,"lng":-3.703612,"mun":"MIERA","src":"NGBE","code":"2.1.9","id":10818},{"name":"Mogro","lat":43.437642,"lng":-3.969932,"mun":"MIENGO","src":"NGBE","code":"2.1.4","id":13611},{"name":"Mogrovejo","lat":43.146484,"lng":-4.710083,"mun":"CAMALEÑO","src":"NGBE","code":"2.1.4","id":13612},{"name":"Mollaneda","lat":43.397907,"lng":-3.365421,"mun":"LIENDO","src":"NGBE","code":"2.1.9","id":10840},{"name":"Molleda","lat":43.3667,"lng":-4.518494,"mun":"VAL DE SAN VICENTE","src":"NGBE","code":"2.1.9","id":10841},{"name":"Molledo","lat":43.149446,"lng":-4.042003,"mun":"MOLLEDO","src":"NGBE","code":"2.1.4","id":13613},{"name":"Molledo","lat":43.149446,"lng":-4.042003,"mun":"MOLLEDO","src":"NGBE","code":"2.1.3","id":14287},{"name":"Mollinedo","lat":43.223327,"lng":-3.26758,"mun":"VALLE DE VILLAVERDE","src":"NGBE","code":"2.1.9","id":475},{"name":"Mompía","lat":43.44049,"lng":-3.919313,"mun":"SANTA CRUZ DE BEZANA","src":"NGBE","code":"2.1.4","id":13615},{"name":"Monasterio","lat":43.259827,"lng":-4.264249,"mun":"RUENTE","src":"NGBE","code":"2.1.6","id":2947},{"name":"Moncalián","lat":43.400878,"lng":-3.550106,"mun":"BÁRCENA DE CICERO","src":"NGBE","code":"2.1.4","id":13616},{"name":"Monegro","lat":43.013337,"lng":-4.035675,"mun":"CAMPOO DE YUSO","src":"NGBE","code":"2.1.4","id":13617},{"name":"Montabliz","lat":43.102478,"lng":-4.098083,"mun":"BÁRCENA DE PIE DE CONCHA","src":"NGBE","code":"2.1.9","id":2948},{"name":"Monte","lat":43.474119,"lng":-3.829284,"mun":"SANTANDER","src":"NGBE","code":"2.1.9","id":493},{"name":"Monte","lat":43.328673,"lng":-3.656614,"mun":"RIOTUERTO","src":"NGBE","code":"2.1.9","id":2950},{"name":"Montecillo","lat":42.774903,"lng":-3.975588,"mun":"VALDERREDIBLE","src":"NGBE","code":"2.1.4","id":13618},{"name":"Montehano","lat":43.42987,"lng":-3.489924,"mun":"ESCALANTE","src":"NGBE","code":"2.1.9","id":2980},{"name":"Montes Claros","lat":42.931702,"lng":-4.050598,"mun":"VALDEPRADO DEL RÍO","src":"NGBE","code":"2.1.6","id":10965},{"name":"Morancas","lat":43.029724,"lng":-4.121704,"mun":"CAMPOO DE ENMEDIO","src":"NGBE","code":"2.1.4","id":13619},{"name":"Mortera","lat":43.444274,"lng":-3.923707,"mun":"PIÉLAGOS","src":"NGBE","code":"2.1.4","id":13621},{"name":"Mortesante","lat":43.308288,"lng":-3.712095,"mun":"MIERA","src":"NGBE","code":"2.1.9","id":2989},{"name":"Movellán","lat":43.320341,"lng":-4.345121,"mun":"VALDÁLIGA","src":"NGBE","code":"2.1.6","id":10997},{"name":"Muñorrodero","lat":43.364075,"lng":-4.484375,"mun":"VAL DE SAN VICENTE","src":"NGBE","code":"2.1.4","id":13622},{"name":"Muriedas","lat":43.423457,"lng":-3.855337,"mun":"CAMARGO","src":"NGBE","code":"2.1.4","id":13623},{"name":"Muriedas","lat":43.423457,"lng":-3.855337,"mun":"CAMARGO","src":"NGBE","code":"2.1.3","id":14297},{"name":"Naroba","lat":43.121521,"lng":-4.629212,"mun":"VEGA DE LIÉBANA","src":"NGBE","code":"2.1.6","id":3005},{"name":"Nates","lat":43.377502,"lng":-3.489194,"mun":"VOTO","src":"NGBE","code":"2.1.4","id":13632},{"name":"Navajeda","lat":43.365477,"lng":-3.698789,"mun":"ENTRAMBASAGUAS","src":"NGBE","code":"2.1.9","id":11011},{"name":"Navamuel","lat":42.841675,"lng":-4.081299,"mun":"VALDERREDIBLE","src":"NGBE","code":"2.1.4","id":13633},{"name":"Naveda","lat":43.015686,"lng":-4.244994,"mun":"HERMANDAD DE CAMPOO DE SUSO","src":"NGBE","code":"2.1.4","id":13634},{"name":"Navedo","lat":43.252076,"lng":-4.578614,"mun":"PEÑARRUBIA","src":"NGBE","code":"2.1.9","id":11023},{"name":"Nestares","lat":42.998108,"lng":-4.154479,"mun":"CAMPOO DE ENMEDIO","src":"NGBE","code":"2.1.4","id":13635},{"name":"Nocina","lat":43.378113,"lng":-3.318724,"mun":"GURIEZO","src":"NGBE","code":"2.1.9","id":11030},{"name":"Noja","lat":43.479284,"lng":-3.520448,"mun":"NOJA","src":"NGBE","code":"2.1.9","id":3015},{"name":"Noja","lat":43.479284,"lng":-3.520448,"mun":"NOJA","src":"NGBE","code":"2.1.3","id":14306},{"name":"Noval","lat":43.438596,"lng":-3.526796,"mun":"ESCALANTE","src":"NGBE","code":"2.1.9","id":3016},{"name":"Noval","lat":43.39093,"lng":-3.386472,"mun":"LIENDO","src":"NGBE","code":"2.1.9","id":3017},{"name":"Novales","lat":43.378762,"lng":-4.181596,"mun":"ALFOZ DE LLOREDO","src":"NGBE","code":"2.1.4","id":13636},{"name":"Novales","lat":43.378762,"lng":-4.181596,"mun":"ALFOZ DE LLOREDO","src":"NGBE","code":"2.1.3","id":14307},{"name":"Obargo","lat":43.085694,"lng":-4.537415,"mun":"PESAGUERO","src":"NGBE","code":"2.1.4","id":13638},{"name":"Obeso","lat":43.25531,"lng":-4.421509,"mun":"RIONANSA","src":"NGBE","code":"2.1.4","id":13639},{"name":"Obregón","lat":43.344725,"lng":-3.866821,"mun":"VILLAESCUSA","src":"NGBE","code":"2.1.4","id":13640},{"name":"Ocejo","lat":43.177917,"lng":-3.868286,"mun":"LUENA","src":"NGBE","code":"2.1.9","id":11039},{"name":"Ocieda","lat":43.033408,"lng":-4.162379,"mun":"HERMANDAD DE CAMPOO DE SUSO","src":"Autonómico","code":"2.1.6","id":316343},{"name":"Ogarrio","lat":43.287476,"lng":-3.539976,"mun":"RUESGA","src":"NGBE","code":"2.1.4","id":13641},{"name":"Ojébar","lat":43.291636,"lng":-3.390183,"mun":"RASINES","src":"NGBE","code":"2.1.9","id":11042},{"name":"Ojedo","lat":43.161072,"lng":-4.610901,"mun":"CILLORIGO DE LIÉBANA","src":"NGBE","code":"2.1.9","id":11044},{"name":"Olea","lat":42.939831,"lng":-4.187711,"mun":"VALDEOLEA","src":"NGBE","code":"2.1.4","id":13642},{"name":"Omoño","lat":43.427488,"lng":-3.657893,"mun":"RIBAMONTÁN AL MONTE","src":"NGBE","code":"2.1.4","id":13643},{"name":"Ongayo","lat":43.092712,"lng":-4.694397,"mun":"VEGA DE LIÉBANA","src":"NGBE","code":"2.1.6","id":11052},{"name":"Ongayo","lat":43.415935,"lng":-4.066164,"mun":"SUANCES","src":"NGBE","code":"2.1.4","id":13644},{"name":"Ontaneda","lat":43.199707,"lng":-3.925598,"mun":"CORVERA DE TORANZO","src":"NGBE","code":"2.1.4","id":13645},{"name":"Ontón","lat":43.351074,"lng":-3.171691,"mun":"CASTRO-URDIALES","src":"NGBE","code":"2.1.4","id":13646},{"name":"Ontoria","lat":43.309875,"lng":-4.213379,"mun":"CABEZÓN DE LA SAL","src":"NGBE","code":"2.1.4","id":13647},{"name":"Orejo","lat":43.403806,"lng":-3.737461,"mun":"MARINA DE CUDEYO","src":"NGBE","code":"2.1.4","id":13648},{"name":"Oreña","lat":43.395918,"lng":-4.134485,"mun":"ALFOZ DE LLOREDO","src":"NGBE","code":"2.1.4","id":13649},{"name":"Oriñón","lat":43.397278,"lng":-3.324216,"mun":"CASTRO-URDIALES","src":"NGBE","code":"2.1.4","id":13650},{"name":"Ormas","lat":43.029907,"lng":-4.234923,"mun":"HERMANDAD DE CAMPOO DE SUSO","src":"NGBE","code":"2.1.4","id":13651},{"name":"Oruña","lat":43.401488,"lng":-3.950318,"mun":"PIÉLAGOS","src":"NGBE","code":"2.1.4","id":13652},{"name":"Orzales","lat":43.007507,"lng":-4.064026,"mun":"CAMPOO DE YUSO","src":"NGBE","code":"2.1.4","id":13653},{"name":"Otañes","lat":43.329284,"lng":-3.192505,"mun":"CASTRO-URDIALES","src":"NGBE","code":"2.1.4","id":13654},{"name":"Otero","lat":43.307009,"lng":-4.481076,"mun":"HERRERÍAS","src":"NGBE","code":"2.1.6","id":11079},{"name":"Otero","lat":42.828309,"lng":-4.03003,"mun":"VALDERREDIBLE","src":"NGBE","code":"2.1.4","id":13656},{"name":"Paderne","lat":43.414916,"lng":-3.490718,"mun":"BÁRCENA DE CICERO","src":"NGBE","code":"2.1.6","id":3033},{"name":"Padiérniga","lat":43.352294,"lng":-3.466794,"mun":"VOTO","src":"NGBE","code":"2.1.4","id":13657},{"name":"Padruno","lat":43.393512,"lng":-4.155894,"mun":"ALFOZ DE LLOREDO","src":"NGBE","code":"2.1.6","id":480},{"name":"Palacio","lat":43.258189,"lng":-3.267114,"mun":"VALLE DE VILLAVERDE","src":"NGBE","code":"2.1.9","id":494},{"name":"Palacio","lat":43.409086,"lng":-3.512664,"mun":"BÁRCENA DE CICERO","src":"NGBE","code":"2.1.6","id":3042},{"name":"Palacio","lat":43.189697,"lng":-4.067688,"mun":"ARENAS DE IGUÑA","src":"NGBE","code":"2.1.9","id":11092},{"name":"Pámanes","lat":43.354937,"lng":-3.776833,"mun":"LIÉRGANES","src":"NGBE","code":"2.1.4","id":13658},{"name":"Pandillo","lat":43.067505,"lng":-3.84961,"mun":"LUENA","src":"NGBE","code":"2.1.6","id":3037},{"name":"Pandillo","lat":43.146122,"lng":-3.722741,"mun":"VEGA DE PAS","src":"NGBE","code":"2.1.9","id":11114},{"name":"Pando","lat":43.378723,"lng":-4.261719,"mun":"RUILOBA","src":"NGBE","code":"2.1.9","id":11124},{"name":"Pando","lat":43.136291,"lng":-4.025208,"mun":"MOLLEDO","src":"NGBE","code":"2.1.6","id":11125},{"name":"Pando","lat":43.279906,"lng":-3.931214,"mun":"SANTIURDE DE TORANZO","src":"NGBE","code":"2.1.9","id":11126},{"name":"Pandoto","lat":43.1203,"lng":-3.885682,"mun":"LUENA","src":"NGBE","code":"2.1.9","id":11130},{"name":"Paracuelles","lat":43.018677,"lng":-4.214599,"mun":"HERMANDAD DE CAMPOO DE SUSO","src":"NGBE","code":"2.1.4","id":13659},{"name":"Parbayón","lat":43.374693,"lng":-3.890076,"mun":"PIÉLAGOS","src":"NGBE","code":"2.1.4","id":13660},{"name":"Pechón","lat":43.390504,"lng":-4.489014,"mun":"VAL DE SAN VICENTE","src":"NGBE","code":"2.1.4","id":13663},{"name":"Pedredo","lat":43.194885,"lng":-4.066284,"mun":"ARENAS DE IGUÑA","src":"NGBE","code":"2.1.9","id":11159},{"name":"Pedreña","lat":43.443113,"lng":-3.767514,"mun":"MARINA DE CUDEYO","src":"NGBE","code":"2.1.4","id":13664},{"name":"Pedreo","lat":43.253479,"lng":-4.416809,"mun":"RIONANSA","src":"NGBE","code":"2.1.9","id":11162},{"name":"Pedroso","lat":43.227905,"lng":-3.842407,"mun":"VILLACARRIEDO","src":"NGBE","code":"2.1.4","id":13665},{"name":"Pego","lat":43.389929,"lng":-3.660395,"mun":"RIBAMONTÁN AL MONTE","src":"Autonómico","code":"2.1.6","id":86236},{"name":"Pejanda","lat":43.107117,"lng":-4.429809,"mun":"POLACIONES","src":"NGBE","code":"2.1.9","id":11175},{"name":"Pembes","lat":43.129517,"lng":-4.74652,"mun":"CAMALEÑO","src":"NGBE","code":"2.1.4","id":13666},{"name":"Peñacastillo","lat":43.448119,"lng":-3.863892,"mun":"SANTANDER","src":"NGBE","code":"2.1.9","id":11341},{"name":"Penagos","lat":43.340132,"lng":-3.81878,"mun":"PENAGOS","src":"NGBE","code":"2.1.4","id":13667},{"name":"Penagos","lat":43.340132,"lng":-3.81878,"mun":"PENAGOS","src":"NGBE","code":"2.1.3","id":14339},{"name":"Pendes","lat":43.202088,"lng":-4.610291,"mun":"CILLORIGO DE LIÉBANA","src":"NGBE","code":"2.1.4","id":13669},{"name":"Pendón","lat":43.416075,"lng":-3.542903,"mun":"BÁRCENA DE CICERO","src":"NGBE","code":"2.1.6","id":3077},{"name":"Penías","lat":43.254516,"lng":-4.057678,"mun":"CORRALES DE BUELNA (LOS)","src":"NGBE","code":"2.1.6","id":11179},{"name":"Penilla","lat":43.060486,"lng":-3.86731,"mun":"LUENA","src":"NGBE","code":"2.1.9","id":11181},{"name":"Penilla","lat":43.285888,"lng":-3.946228,"mun":"SANTIURDE DE TORANZO","src":"NGBE","code":"2.1.4","id":13670},{"name":"Penilla","lat":43.25891,"lng":-3.863403,"mun":"VILLAFUFRE","src":"NGBE","code":"2.1.4","id":14342},{"name":"Perelada","lat":43.393507,"lng":-4.151073,"mun":"ALFOZ DE LLOREDO","src":"NGBE","code":"2.1.6","id":3148},{"name":"Periedo","lat":43.328308,"lng":-4.183227,"mun":"CABEZÓN DE LA SAL","src":"NGBE","code":"2.1.9","id":11394},{"name":"Perrozo","lat":43.117827,"lng":-4.5508,"mun":"CABEZÓN DE LIÉBANA","src":"NGBE","code":"2.1.4","id":13671},{"name":"Pesaguero","lat":43.077018,"lng":-4.53893,"mun":"PESAGUERO","src":"NGBE","code":"2.1.4","id":13672},{"name":"Pesaguero","lat":43.077018,"lng":-4.53893,"mun":"PESAGUERO","src":"NGBE","code":"2.1.3","id":14355},{"name":"Pesquera","lat":43.082172,"lng":-4.080468,"mun":"PESQUERA","src":"NGBE","code":"2.1.9","id":3151},{"name":"Pesquera","lat":43.082172,"lng":-4.080468,"mun":"PESQUERA","src":"NGBE","code":"2.1.3","id":14357},{"name":"Pesués","lat":43.374651,"lng":-4.487797,"mun":"VAL DE SAN VICENTE","src":"NGBE","code":"2.1.3","id":13299},{"name":"Pesués","lat":43.374651,"lng":-4.487797,"mun":"VAL DE SAN VICENTE","src":"NGBE","code":"2.1.4","id":13674},{"name":"Piasca","lat":43.119507,"lng":-4.580811,"mun":"CABEZÓN DE LIÉBANA","src":"NGBE","code":"2.1.4","id":13676},{"name":"Pido","lat":43.127319,"lng":-4.796203,"mun":"CAMALEÑO","src":"NGBE","code":"2.1.9","id":11533},{"name":"Pie de Concha","lat":43.123291,"lng":-4.064697,"mun":"BÁRCENA DE PIE DE CONCHA","src":"NGBE","code":"2.1.4","id":13677},{"name":"Piedrahíta","lat":43.458495,"lng":-3.485101,"mun":"Varios o fuera de Cantabria","src":"NGBE","code":"2.1.9","id":3205},{"name":"Pieragullano","lat":43.350557,"lng":-3.429851,"mun":"AMPUERO","src":"NGBE","code":"2.1.9","id":11552},{"name":"Pilas","lat":43.184875,"lng":-3.487974,"mun":"SOBA","src":"NGBE","code":"2.1.4","id":13679},{"name":"Piñeres","lat":43.243531,"lng":-4.560609,"mun":"PEÑARRUBIA","src":"NGBE","code":"2.1.9","id":11560},{"name":"Pisueña","lat":43.190918,"lng":-3.763488,"mun":"SELAYA","src":"NGBE","code":"2.1.9","id":11569},{"name":"Población de Abajo","lat":42.842103,"lng":-3.927004,"mun":"VALDERREDIBLE","src":"NGBE","code":"2.1.4","id":13680},{"name":"Población de Arriba","lat":42.872926,"lng":-3.945314,"mun":"VALDERREDIBLE","src":"NGBE","code":"2.1.4","id":13681},{"name":"Polanco","lat":43.384595,"lng":-4.018353,"mun":"POLANCO","src":"NGBE","code":"2.1.9","id":3219},{"name":"Polanco","lat":43.384595,"lng":-4.018353,"mun":"POLANCO","src":"NGBE","code":"2.1.3","id":14370},{"name":"Polientes","lat":42.805599,"lng":-3.940625,"mun":"VALDERREDIBLE","src":"NGBE","code":"2.1.4","id":13682},{"name":"Polientes","lat":42.8056,"lng":-3.940626,"mun":"VALDERREDIBLE","src":"NGBE","code":"2.1.3","id":14371},{"name":"Pollayo","lat":43.088074,"lng":-4.663025,"mun":"VEGA DE LIÉBANA","src":"NGBE","code":"2.1.4","id":13684},{"name":"Pomaluengo","lat":43.309508,"lng":-3.929505,"mun":"CASTAÑEDA","src":"NGBE","code":"2.1.9","id":3231},{"name":"Pomaluengo","lat":43.309508,"lng":-3.929505,"mun":"CASTAÑEDA","src":"NGBE","code":"2.1.3","id":14373},{"name":"Pomar","lat":43.362671,"lng":-3.313476,"mun":"GURIEZO","src":"NGBE","code":"2.1.9","id":11617},{"name":"Pomares","lat":43.405583,"lng":-3.494533,"mun":"BÁRCENA DE CICERO","src":"NGBE","code":"2.1.6","id":3232},{"name":"Pondra","lat":43.266113,"lng":-3.422728,"mun":"RAMALES DE LA VICTORIA","src":"NGBE","code":"2.1.6","id":11618},{"name":"Pontejos","lat":43.407713,"lng":-3.799986,"mun":"MARINA DE CUDEYO","src":"NGBE","code":"2.1.4","id":13685},{"name":"Pontones","lat":43.421079,"lng":-3.683773,"mun":"RIBAMONTÁN AL MONTE","src":"NGBE","code":"2.1.4","id":13686},{"name":"Portillo","lat":43.349122,"lng":-4.440613,"mun":"VAL DE SAN VICENTE","src":"NGBE","code":"2.1.9","id":11640},{"name":"Posadillo","lat":43.373718,"lng":-4.018982,"mun":"POLANCO","src":"NGBE","code":"2.1.9","id":11659},{"name":"Posajo Penías","lat":43.259223,"lng":-4.055245,"mun":"SAN FELICES DE BUELNA","src":"NGBE","code":"2.1.9","id":3249},{"name":"Potes","lat":43.154698,"lng":-4.621462,"mun":"POTES","src":"NGBE","code":"2.1.9","id":3250},{"name":"Potes","lat":43.154698,"lng":-4.621462,"mun":"POTES","src":"NGBE","code":"2.1.3","id":14378},{"name":"Pozales","lat":43.098792,"lng":-4.117857,"mun":"SANTIURDE DE REINOSA","src":"Autonómico","code":"2.1.6","id":316332},{"name":"Pozancos","lat":43.028724,"lng":-4.179707,"mun":"HERMANDAD DE CAMPOO DE SUSO","src":"Autonómico","code":"2.1.6","id":316338},{"name":"Prases","lat":43.246276,"lng":-3.946289,"mun":"CORVERA DE TORANZO","src":"NGBE","code":"2.1.4","id":13687},{"name":"Praves","lat":43.412474,"lng":-3.600581,"mun":"HAZAS DE CESTO","src":"NGBE","code":"2.1.4","id":13688},{"name":"Prellezo","lat":43.386292,"lng":-4.448914,"mun":"VAL DE SAN VICENTE","src":"NGBE","code":"2.1.4","id":13689},{"name":"Prezanes","lat":43.45349,"lng":-3.909791,"mun":"SANTA CRUZ DE BEZANA","src":"NGBE","code":"2.1.4","id":13690},{"name":"Primosto","lat":43.388305,"lng":-3.47192,"mun":"BÁRCENA DE CICERO","src":"NGBE","code":"2.1.6","id":3269},{"name":"Prío","lat":43.365296,"lng":-4.497193,"mun":"VAL DE SAN VICENTE","src":"NGBE","code":"2.1.4","id":13691},{"name":"Proaño","lat":43.029907,"lng":-4.251708,"mun":"HERMANDAD DE CAMPOO DE SUSO","src":"NGBE","code":"2.1.4","id":13692},{"name":"Puente Agüero","lat":43.405271,"lng":-3.716793,"mun":"ENTRAMBASAGUAS","src":"NGBE","code":"2.1.9","id":3284},{"name":"Puente el Arrudo","lat":43.307122,"lng":-4.471322,"mun":"HERRERÍAS","src":"NGBE","code":"2.1.9","id":3355},{"name":"Puente el Arrudo","lat":43.307122,"lng":-4.471322,"mun":"HERRERÍAS","src":"NGBE","code":"2.1.3","id":14384},{"name":"Puente Pumar","lat":43.109497,"lng":-4.404907,"mun":"POLACIONES","src":"NGBE","code":"2.1.4","id":13693},{"name":"Puente San Miguel","lat":43.359664,"lng":-4.087224,"mun":"REOCÍN","src":"NGBE","code":"2.1.4","id":13694},{"name":"Puente San Miguel","lat":43.359664,"lng":-4.087224,"mun":"REOCÍN","src":"NGBE","code":"2.1.3","id":14386},{"name":"Puente Viesgo","lat":43.298938,"lng":-3.964149,"mun":"PUENTE VIESGO","src":"NGBE","code":"2.1.4","id":13696},{"name":"Puente Viesgo","lat":43.298938,"lng":-3.964149,"mun":"PUENTE VIESGO","src":"NGBE","code":"2.1.3","id":14388},{"name":"Puente-Avíos","lat":43.406677,"lng":-4.075806,"mun":"SUANCES","src":"NGBE","code":"2.1.4","id":13698},{"name":"Puentenansa","lat":43.255522,"lng":-4.405978,"mun":"RIONANSA","src":"NGBE","code":"2.1.9","id":3390},{"name":"Puentenansa","lat":43.255522,"lng":-4.405978,"mun":"RIONANSA","src":"NGBE","code":"2.1.3","id":14389},{"name":"Pujayo","lat":43.125305,"lng":-4.085998,"mun":"BÁRCENA DE PIE DE CONCHA","src":"NGBE","code":"2.1.4","id":13700},{"name":"Pumalverde","lat":43.335289,"lng":-4.25329,"mun":"UDÍAS","src":"NGBE","code":"2.1.9","id":3406},{"name":"Pumalverde","lat":43.335289,"lng":-4.25329,"mun":"UDÍAS","src":"NGBE","code":"2.1.3","id":14391},{"name":"Pumareña","lat":43.183507,"lng":-4.582111,"mun":"CILLORIGO DE LIÉBANA","src":"NGBE","code":"2.1.9","id":11840},{"name":"Queveda","lat":43.379516,"lng":-4.070313,"mun":"SANTILLANA DEL MAR","src":"NGBE","code":"2.1.4","id":13701},{"name":"Quijano","lat":43.369689,"lng":-3.956605,"mun":"PIÉLAGOS","src":"NGBE","code":"2.1.4","id":13702},{"name":"Quijas","lat":43.349915,"lng":-4.132812,"mun":"REOCÍN","src":"NGBE","code":"2.1.4","id":13703},{"name":"Quintana","lat":43.110498,"lng":-4.726248,"mun":"CAMALEÑO","src":"NGBE","code":"2.1.6","id":3425},{"name":"Quintana","lat":43.154564,"lng":-4.680648,"mun":"CAMALEÑO","src":"NGBE","code":"2.1.9","id":3430},{"name":"Quintana","lat":43.014099,"lng":-4.047485,"mun":"CAMPOO DE YUSO","src":"NGBE","code":"2.1.9","id":11928},{"name":"Quintana","lat":43.182678,"lng":-3.568907,"mun":"SOBA","src":"NGBE","code":"2.1.4","id":13704},{"name":"Quintana","lat":42.964801,"lng":-4.182901,"mun":"HERMANDAD DE CAMPOO DE SUSO","src":"Autonómico","code":"2.1.6","id":298995},{"name":"Quintana de Toranzo","lat":43.234314,"lng":-3.982605,"mun":"CORVERA DE TORANZO","src":"NGBE","code":"2.1.4","id":13705},{"name":"Quintanamanil","lat":43.015076,"lng":-3.993714,"mun":"CAMPOO DE YUSO","src":"NGBE","code":"2.1.4","id":13706},{"name":"Quintanas Olmo","lat":42.830638,"lng":-3.988189,"mun":"VALDERREDIBLE","src":"NGBE","code":"2.1.9","id":4200},{"name":"Quintanilla","lat":43.251526,"lng":-4.475281,"mun":"LAMASÓN","src":"NGBE","code":"2.1.9","id":11932},{"name":"Quintanilla","lat":42.979709,"lng":-4.110263,"mun":"CAMPOO DE ENMEDIO","src":"NGBE","code":"2.1.6","id":14710},{"name":"Quintanilla de An","lat":42.797486,"lng":-3.974184,"mun":"VALDERREDIBLE","src":"NGBE","code":"2.1.4","id":13707},{"name":"Quintanilla de Rucandio","lat":42.920561,"lng":-3.862028,"mun":"VALDERREDIBLE","src":"NGBE","code":"2.1.4","id":13708},{"name":"Rábago","lat":43.304322,"lng":-4.453614,"mun":"HERRERÍAS","src":"NGBE","code":"2.1.4","id":13709},{"name":"Rada","lat":43.366882,"lng":-3.491208,"mun":"VOTO","src":"NGBE","code":"2.1.4","id":13710},{"name":"Radillo","lat":43.345485,"lng":-4.358029,"mun":"VALDÁLIGA","src":"NGBE","code":"2.1.6","id":3434},{"name":"Ramales de la Victoria","lat":43.256546,"lng":-3.464443,"mun":"RAMALES DE LA VICTORIA","src":"NGBE","code":"2.1.9","id":3435},{"name":"Ramales de la Victoria","lat":43.256546,"lng":-3.464443,"mun":"RAMALES DE LA VICTORIA","src":"NGBE","code":"2.1.3","id":14404},{"name":"Ranero","lat":43.356506,"lng":-3.296203,"mun":"GURIEZO","src":"NGBE","code":"2.1.9","id":3437},{"name":"Rascón","lat":43.332275,"lng":-3.390014,"mun":"AMPUERO","src":"NGBE","code":"2.1.9","id":11947},{"name":"Rases","lat":43.164307,"lng":-4.621094,"mun":"POTES","src":"NGBE","code":"2.1.9","id":3441},{"name":"Rasgada","lat":42.837525,"lng":-4.051209,"mun":"VALDERREDIBLE","src":"NGBE","code":"2.1.9","id":11948},{"name":"Rasillo","lat":43.252502,"lng":-3.890686,"mun":"VILLAFUFRE","src":"NGBE","code":"2.1.4","id":14405},{"name":"Rasines","lat":43.304644,"lng":-3.429124,"mun":"RASINES","src":"NGBE","code":"2.1.9","id":3442},{"name":"Rasines","lat":43.304644,"lng":-3.429124,"mun":"RASINES","src":"NGBE","code":"2.1.3","id":14408},{"name":"Rebollar de Ebro","lat":42.793702,"lng":-3.95508,"mun":"VALDERREDIBLE","src":"NGBE","code":"2.1.4","id":13711},{"name":"Rebolledo","lat":42.893921,"lng":-4.158508,"mun":"VALDEOLEA","src":"NGBE","code":"2.1.9","id":11954},{"name":"Redo","lat":43.151489,"lng":-4.708313,"mun":"CAMALEÑO","src":"NGBE","code":"2.1.9","id":11967},{"name":"Regada","lat":43.324716,"lng":-3.366894,"mun":"AMPUERO","src":"NGBE","code":"2.1.9","id":3452},{"name":"Regolfo","lat":43.358384,"lng":-3.58798,"mun":"SOLÓRZANO","src":"NGBE","code":"2.1.9","id":12012},{"name":"Regulanes","lat":43.000764,"lng":-4.247439,"mun":"HERMANDAD DE CAMPOO DE SUSO","src":"Autonómico","code":"2.1.6","id":316344},{"name":"Regules","lat":43.202697,"lng":-3.503477,"mun":"SOBA","src":"NGBE","code":"2.1.4","id":13712},{"name":"Rehoyos","lat":43.177917,"lng":-3.496519,"mun":"SOBA","src":"NGBE","code":"2.1.4","id":13713},{"name":"Reinosa","lat":43.001194,"lng":-4.137791,"mun":"REINOSA","src":"NGBE","code":"2.1.9","id":3467},{"name":"Reinosa","lat":43.001194,"lng":-4.137791,"mun":"REINOSA","src":"NGBE","code":"2.1.3","id":14413},{"name":"Reinosilla","lat":42.918141,"lng":-4.203478,"mun":"VALDEOLEA","src":"NGBE","code":"2.1.4","id":13714},{"name":"Renedo","lat":43.203491,"lng":-4.30249,"mun":"CABUÉRNIGA","src":"NGBE","code":"2.1.9","id":3468},{"name":"Renedo","lat":43.356114,"lng":-3.95645,"mun":"PIÉLAGOS","src":"NGBE","code":"2.1.9","id":3469},{"name":"Renedo","lat":43.356114,"lng":-3.95645,"mun":"PIÉLAGOS","src":"NGBE","code":"2.1.4","id":13715},{"name":"Renedo","lat":42.975708,"lng":-4.003113,"mun":"ROZAS DE VALDEARROYO (LAS)","src":"NGBE","code":"2.1.4","id":13716},{"name":"Renedo","lat":43.203491,"lng":-4.30249,"mun":"CABUÉRNIGA","src":"NGBE","code":"2.1.4","id":13717},